{
    "lat" : -37.67333263903052,
    "lng" : 145.15869422095375,
    "name" : "Diamond Creek",
    "type" : "train",
}
{
    "lat" : -37.851674225215305,
    "lng" : 145.1521082243542,
    "name" : "Burwood Highway",
    "type" : "bus",
}
{
    "lat" : -37.879717558662946,
    "lng" : 145.16293303320765,
    "name" : "Glen Waverley",
    "type" : "train",
}
{
    "lat" : -37.87627620067698,
    "lng" : 145.1497929750596,
    "name" : "Syndal",
    "type" : "train",
}
{
    "lat" : -37.885003438261236,
    "lng" : 145.14607124241252,
    "name" : "Waverley Private Hospital",
    "type" : "bus",
}
{
    "lat" : -37.949132960346645,
    "lng" : 145.15319259116774,
    "name" : "Springvale",
    "type" : "train",
}
{
    "lat" : -37.96632131008943,
    "lng" : 145.1758463608748,
    "name" : "Noble Park",
    "type" : "train",
}
{
    "lat" : -37.95690013474143,
    "lng" : 145.1633075366414,
    "name" : "Sandown Park",
    "type" : "train",
}
{
    "lat" : -37.97792387573833,
    "lng" : 145.1913140735341,
    "name" : "Yarraman",
    "type" : "train",
}
{
    "lat" : -37.85650530274742,
    "lng" : 145.18288288476992,
    "name" : "Vermont South Shopping Centre",
    "type" : "bus",
}
{
    "lat" : -37.85657076541122,
    "lng" : 145.18267015206743,
    "name" : "Vermont South Shopping Centre",
    "type" : "bus",
}
{
    "lat" : -37.82060712019785,
    "lng" : 145.1754076520627,
    "name" : "Nunawading Railway Station/Springvale Road",
    "type" : "bus",
}
{
    "lat" : -37.887554302854056,
    "lng" : 145.14569162601776,
    "name" : "Leicester Avenue",
    "type" : "bus",
}
{
    "lat" : -37.88440262344179,
    "lng" : 145.1459777841921,
    "name" : "Waverley Private Hospital",
    "type" : "bus",
}
{
    "lat" : -37.89117545266308,
    "lng" : 145.14461052814647,
    "name" : "Pinewood Shopping Centre",
    "type" : "bus",
}
{
    "lat" : -37.8757997733006,
    "lng" : 145.14790754975974,
    "name" : "Syndal Station",
    "type" : "bus",
}
{
    "lat" : -37.85576945546782,
    "lng" : 145.1750547739391,
    "name" : "Fortescue Grove",
    "type" : "bus",
}
{
    "lat" : -37.855560326983635,
    "lng" : 145.17638062338307,
    "name" : "Fankhauser Drive",
    "type" : "bus",
}
{
    "lat" : -37.85353676791951,
    "lng" : 145.1596081836758,
    "name" : "Newhaven Road",
    "type" : "bus",
}
{
    "lat" : -37.84744480069298,
    "lng" : 145.1703728942835,
    "name" : "Hawthorn Road",
    "train" : "",
    "tram" : "",
    "bus" : "",
}
{
    "lat" : -37.84764076958919,
    "lng" : 145.1707416980231,
    "name" : "Emmaus College",
    "type" : "bus",
}
{
    "lat" : -37.82036723012902,
    "lng" : 145.17589371862772,
    "name" : "Nunawading Railway Station",
    "type" : "train",
}
{
    "lat" : -37.820084173258834,
    "lng" : 145.1502691509789,
    "name" : "Blackburn",
    "type" : "train",
}
{
    "lat" : -37.820458257597465,
    "lng" : 145.15032673465373,
    "name" : "Blackburn Station",
    "type" : "bus",
}
{
    "lat" : -37.66405010036101,
    "lng" : 145.1817327200165,
    "name" : "Wattleglen",
    "type" : "train",
}
{
    "lat" : -37.86584500599659,
    "lng" : 145.14969297895476,
    "name" : "Sesame Street",
    "type" : "bus",
}
{
    "lat" : -37.84141955341573,
    "lng" : 145.15541614244165,
    "name" : "Vicki Street",
    "train" : "",
    "tram" : "",
    "bus" : "",
}
{
    "lat" : -37.84477206322805,
    "lng" : 145.15480535315737,
    "name" : "Hawthorn Road",
    "train" : "",
    "tram" : "",
    "bus" : "",
}
{
    "lat" : -37.851850748096155,
    "lng" : 145.15232305253255,
    "name" : "Burwood Highway",
    "type" : "bus",
}
{
    "lat" : -37.838486054943075,
    "lng" : 145.15592375049783,
    "name" : "Faulkner Street",
    "train" : "",
    "tram" : "",
    "bus" : "",
}
{
    "lat" : -37.832977132901306,
    "lng" : 145.15892556148134,
    "name" : "Lagoona Court",
    "type" : "bus",
}
{
    "lat" : -37.83364097963266,
    "lng" : 145.15672179149897,
    "name" : "Lavelle Street",
    "train" : "",
    "tram" : "",
    "bus" : "",
}
{
    "lat" : -37.83456525209559,
    "lng" : 145.1646697635452,
    "name" : "Forest Hill Shopping Centre/Canterbury Road",
    "type" : "bus",
}
{
    "lat" : -37.83346387001859,
    "lng" : 145.16064049887063,
    "name" : "Deans Wood Road",
    "type" : "bus",
}
{
    "lat" : -37.83611146177401,
    "lng" : 145.1563207174321,
    "name" : "Cornwall Street",
    "train" : "",
    "tram" : "",
    "bus" : "",
}
{
    "lat" : -37.889689425049426,
    "lng" : 145.14528376260938,
    "name" : "Marcella Court",
    "type" : "bus",
}
{
    "lat" : -37.891648108183034,
    "lng" : 145.14484362887373,
    "name" : "Pinewood Shopping Centre",
    "type" : "bus",
}
{
    "lat" : -37.81731328370773,
    "lng" : 145.18785117405702,
    "name" : "McGlone Street",
    "type" : "bus",
}
{
    "lat" : -37.81682428347659,
    "lng" : 145.1894611700186,
    "name" : "Alexander Street",
    "type" : "bus",
}
{
    "lat" : -37.85194722380166,
    "lng" : 145.16959798733507,
    "name" : "Panorama Drive",
    "train" : "",
    "tram" : "",
    "bus" : "",
}
{
    "lat" : -37.851599877734174,
    "lng" : 145.17006997230277,
    "name" : "Mullens Road",
    "train" : "",
    "tram" : "",
    "bus" : "",
}
{
    "lat" : -37.84537723663718,
    "lng" : 145.1706922447944,
    "name" : "Whitehorse Gardens",
    "train" : "",
    "tram" : "",
    "bus" : "",
}
{
    "lat" : -37.854003053193026,
    "lng" : 145.16968985299388,
    "name" : "Burwood Highway",
    "type" : "bus",
}
{
    "lat" : -37.84152055534898,
    "lng" : 145.17161358359124,
    "name" : "Parkmore Road",
    "train" : "",
    "tram" : "",
    "bus" : "",
}
{
    "lat" : -37.85424294326185,
    "lng" : 145.1691419279834,
    "name" : "Burwood Highway",
    "type" : "bus",
}
{
    "lat" : -37.84156112376033,
    "lng" : 145.17124494748964,
    "name" : "Norma Road",
    "train" : "",
    "tram" : "",
    "bus" : "",
}
{
    "lat" : -37.84520783837405,
    "lng" : 145.17111603381886,
    "name" : "Whitehorse Gardens",
    "train" : "",
    "tram" : "",
    "bus" : "",
}
{
    "lat" : -37.83498987931037,
    "lng" : 145.15621854203243,
    "name" : "Boyd Street (North)",
    "train" : "",
    "tram" : "",
    "bus" : "",
}
{
    "lat" : -37.84084095063966,
    "lng" : 145.15524632508334,
    "name" : "Bond Avenue",
    "train" : "",
    "tram" : "",
    "bus" : "",
}
{
    "lat" : -37.84342307973131,
    "lng" : 145.15477014916405,
    "name" : "Finch Place",
    "train" : "",
    "tram" : "",
    "bus" : "",
}
{
    "lat" : -37.81821316483246,
    "lng" : 145.15415273817626,
    "name" : "Chapel Street",
    "type" : "bus",
}
{
    "lat" : -37.81990077721741,
    "lng" : 145.15013076575752,
    "name" : "Blackburn Station",
    "type" : "bus",
}
{
    "lat" : -37.8204496242372,
    "lng" : 145.17521067733816,
    "name" : "Nunawading",
    "type" : "train",
}
{
    "lat" : -37.8354672286961,
    "lng" : 145.17270532647956,
    "name" : "Canterbury Road",
    "train" : "",
    "tram" : "",
    "bus" : "",
}
{
    "lat" : -37.83881454172845,
    "lng" : 145.17205304677464,
    "name" : "Husband Road",
    "train" : "",
    "tram" : "",
    "bus" : "",
}
{
    "lat" : -37.854854822193545,
    "lng" : 145.17094244460412,
    "name" : "Springvale Road",
    "train" : "",
    "tram" : "",
    "bus" : "",
}
{
    "lat" : -37.836948227167824,
    "lng" : 145.1559122672905,
    "name" : "Boyd Street (South)",
    "train" : "",
    "tram" : "",
    "bus" : "",
}
{
    "lat" : -37.83887396942194,
    "lng" : 145.1555978621024,
    "name" : "Brazeel Street",
    "train" : "",
    "tram" : "",
    "bus" : "",
}
{
    "lat" : -37.81058010088847,
    "lng" : 145.15771613667243,
    "name" : "Springfield Road",
    "type" : "bus",
}
{
    "lat" : -37.81083952079169,
    "lng" : 145.15785024712324,
    "name" : "Springfield Road",
    "type" : "bus",
}
{
    "lat" : -37.84585601094645,
    "lng" : 145.1572749971084,
    "name" : "Tainton Road/Hawthorn Road",
    "train" : "",
    "tram" : "",
    "bus" : "",
}
{
    "lat" : -37.94843198178424,
    "lng" : 145.1733020341665,
    "name" : "Corrigan Rd/Princes Hwy",
    "type" : "bus",
}
{
    "lat" : -37.818042341645764,
    "lng" : 145.19287344280053,
    "name" : "Mitcham",
    "train" : "",
    "tram" : "",
    "bus" : "",
}
{
    "lat" : -37.9533643127067,
    "lng" : 145.15192985745466,
    "name" : "Saint James Avenue",
    "train" : "",
    "tram" : "",
    "bus" : "",
}
{
    "lat" : -37.85789661485521,
    "lng" : 145.16866114201736,
    "name" : "Vision Drive",
    "train" : "",
    "tram" : "",
    "bus" : "",
}
{
    "lat" : -37.83738115246675,
    "lng" : 145.1719286593315,
    "name" : "Forest Hill Reserve",
    "train" : "",
    "tram" : "",
    "bus" : "",
}
{
    "lat" : -37.852506380562374,
    "lng" : 145.1526520422321,
    "name" : "Blackburn Road",
    "type" : "bus",
}
{
    "lat" : -37.85166668150245,
    "lng" : 145.15204418661398,
    "name" : "Burwood Highway",
    "type" : "bus",
}
{
    "lat" : -37.85141002762728,
    "lng" : 145.14142196836025,
    "name" : "Benwerrin Reserve",
    "type" : "bus",
}
{
    "lat" : -37.85184404257362,
    "lng" : 145.15223168978793,
    "name" : "Burwood Highway",
    "type" : "bus",
}
{
    "lat" : -37.85260294008694,
    "lng" : 145.1526322609406,
    "name" : "Blackburn Road",
    "type" : "bus",
}
{
    "lat" : -37.85150985609408,
    "lng" : 145.14141157480032,
    "name" : "Benwerrin Reserve",
    "type" : "bus",
}
{
    "lat" : -37.857401747291846,
    "lng" : 145.18300894859368,
    "name" : "Burwood Highway",
    "type" : "bus",
}
{
    "lat" : -37.85562612492356,
    "lng" : 145.1763669608809,
    "name" : "Fankhauser Drive",
    "type" : "bus",
}
{
    "lat" : -37.855686474626395,
    "lng" : 145.17506868789837,
    "name" : "Fortescue Grove",
    "type" : "bus",
}
{
    "lat" : -37.85195895846613,
    "lng" : 145.14580897266222,
    "name" : "Highview Grove",
    "type" : "bus",
}
{
    "lat" : -37.85399433601373,
    "lng" : 145.1695166828743,
    "name" : "Burwood Highway",
    "type" : "bus",
}
{
    "lat" : -37.85738590549485,
    "lng" : 145.18284642349113,
    "name" : "Burwood Highway",
    "type" : "bus",
}
{
    "lat" : -37.857391437550945,
    "lng" : 145.18290786284143,
    "name" : "Burwood Highway",
    "type" : "bus",
}
{
    "lat" : -37.85425367209794,
    "lng" : 145.16926807562618,
    "name" : "Burwood Highway",
    "type" : "bus",
}
{
    "lat" : -37.851895675097154,
    "lng" : 145.1470249353556,
    "name" : "Keats Street",
    "type" : "bus",
}
{
    "lat" : -37.85180163014354,
    "lng" : 145.1470320599733,
    "name" : "Keats Street",
    "type" : "bus",
}
{
    "lat" : -37.85201763178833,
    "lng" : 145.14580377588226,
    "name" : "Highview Grove",
    "type" : "bus",
}
{
    "lat" : -37.85361404906675,
    "lng" : 145.15959217424074,
    "name" : "Newhaven Road",
    "type" : "bus",
}
{
    "lat" : -37.85394572097533,
    "lng" : 145.16001395160845,
    "name" : "Newhaven Road",
    "type" : "bus",
}
{
    "lat" : -37.85388486835831,
    "lng" : 145.16002183059743,
    "name" : "Newhaven Road",
    "type" : "bus",
}
{
    "lat" : -37.85144950639122,
    "lng" : 145.13915013732407,
    "name" : "Old Burwood Road",
    "type" : "bus",
}
{
    "lat" : -37.85139351527803,
    "lng" : 145.13913002075645,
    "name" : "Old Burwood Road",
    "type" : "bus",
}
{
    "lat" : -37.85119436125862,
    "lng" : 145.14240818308764,
    "name" : "Royton Street",
    "type" : "bus",
}
{
    "lat" : -37.85485406782226,
    "lng" : 145.16828546511715,
    "name" : "Springvale Road",
    "type" : "bus",
}
{
    "lat" : -37.851291423697376,
    "lng" : 145.14239762188964,
    "name" : "Royton Street",
    "type" : "bus",
}
{
    "lat" : -37.85492782857017,
    "lng" : 145.17092869828292,
    "name" : "Springvale Road",
    "type" : "bus",
}
{
    "lat" : -37.85494484383361,
    "lng" : 145.16826216342633,
    "name" : "Springvale Road",
    "type" : "bus",
}
{
    "lat" : -37.85132646005263,
    "lng" : 145.14181315178132,
    "name" : "Stop 68: Benwerrin Reserve",
    "type" : "tram",
}
{
    "lat" : -37.85363274071082,
    "lng" : 145.1589878390219,
    "name" : "Stop 71: Sevenoaks Road",
    "type" : "tram",
}
{
    "lat" : -37.85185384940033,
    "lng" : 145.1459651275183,
    "name" : "Stop 69: Keats Street",
    "type" : "tram",
}
{
    "lat" : -37.853615306352225,
    "lng" : 145.158544268706,
    "name" : "Stop 71: Sevenoaks Road",
    "type" : "tram",
}
{
    "lat" : -37.85256790373168,
    "lng" : 145.1511431320228,
    "name" : "Stop 70: Blackburn Road",
    "type" : "tram",
}
{
    "lat" : -37.85271056372369,
    "lng" : 145.1528319178742,
    "name" : "Stop 70: Blackburn Road",
    "type" : "tram",
}
{
    "lat" : -37.85193657878463,
    "lng" : 145.14633602673376,
    "name" : "Stop 69: Highview Grove",
    "type" : "tram",
}
{
    "lat" : -37.85140080753379,
    "lng" : 145.14216737100946,
    "name" : "Stop 68: Benwerrin Reserve",
    "type" : "tram",
}
{
    "lat" : -37.854756502469314,
    "lng" : 145.16820885452216,
    "name" : "Stop 73: Springvale Road",
    "type" : "tram",
}
{
    "lat" : -37.85436104427757,
    "lng" : 145.1646420194457,
    "name" : "Stop 72: Lakeside Drive",
    "type" : "tram",
}
{
    "lat" : -37.85445710088794,
    "lng" : 145.16605738761558,
    "name" : "Stop 72: Lakeside Drive",
    "type" : "tram",
}
{
    "lat" : -37.85495917688803,
    "lng" : 145.170149684202,
    "name" : "Stop 73: Springvale Road",
    "type" : "tram",
}
{
    "lat" : -37.85554163533956,
    "lng" : 145.1746073479477,
    "name" : "Stop 74: Stanley Road",
    "type" : "tram",
}
{
    "lat" : -37.856529358809524,
    "lng" : 145.18267442683805,
    "name" : "Vermont South Shopping Centre",
    "type" : "bus",
}
{
    "lat" : -37.85655416924294,
    "lng" : 145.18287827472318,
    "name" : "Vermont South Shopping Centre",
    "type" : "bus",
}
{
    "lat" : -37.855866434087545,
    "lng" : 145.18372568513405,
    "name" : "Vermont South Shopping Centre",
    "type" : "bus",
}
{
    "lat" : -37.85566954318199,
    "lng" : 145.1837747192676,
    "name" : "Vermont South Shopping Centre",
    "type" : "bus",
}
{
    "lat" : -37.85565697032723,
    "lng" : 145.18370514947128,
    "name" : "Vermont South Shopping Centre",
    "type" : "bus",
}
{
    "lat" : -37.855882024427444,
    "lng" : 145.18384772564423,
    "name" : "Vermont South Shopping Centre",
    "type" : "bus",
}
{
    "lat" : -37.85642953034275,
    "lng" : 145.18209314185293,
    "name" : "Stop 75: Vermont South Shopping Centre",
    "type" : "tram",
}
{
    "lat" : -37.856501027976805,
    "lng" : 145.18208534668298,
    "name" : "Stop 75: Vermont South Shopping Centre",
    "type" : "tram",
}
{
    "lat" : -37.85554867613823,
    "lng" : 145.17494304316983,
    "name" : "Stop 74: Stanley Road",
    "type" : "tram",
}
{
    "lat" : -37.81990295651224,
    "lng" : 145.15214393126172,
    "name" : "Albert Street",
    "type" : "bus",
}
{
    "lat" : -37.820217613157354,
    "lng" : 145.14920096123848,
    "name" : "Blackburn",
    "type" : "train",
}
{
    "lat" : -37.81986490267181,
    "lng" : 145.15214326070947,
    "name" : "Albert Street",
    "type" : "bus",
}
{
    "lat" : -37.820063218500906,
    "lng" : 145.15086803796066,
    "name" : "Blackburn",
    "type" : "train",
}
{
    "lat" : -37.81982676501238,
    "lng" : 145.15022497834917,
    "name" : "Blackburn Station",
    "type" : "bus",
}
{
    "lat" : -37.819841181885835,
    "lng" : 145.15013168776687,
    "name" : "Blackburn Station",
    "type" : "bus",
}
{
    "lat" : -37.81860200132067,
    "lng" : 145.15392424749575,
    "name" : "Whitehorse Road",
    "type" : "bus",
}
{
    "lat" : -37.81975945832991,
    "lng" : 145.15022489453014,
    "name" : "Blackburn Station",
    "type" : "bus",
}
{
    "lat" : -37.81860946121449,
    "lng" : 145.154001361005,
    "name" : "Whitehorse Road",
    "type" : "bus",
}
{
    "lat" : -37.81820436383413,
    "lng" : 145.1540798994377,
    "name" : "Chapel Street",
    "type" : "bus",
}
{
    "lat" : -37.811167420843816,
    "lng" : 145.15903989064066,
    "name" : "Surrey Road",
    "type" : "bus",
}
{
    "lat" : -37.811109250435806,
    "lng" : 145.1590492783722,
    "name" : "Surrey Road",
    "type" : "bus",
}
{
    "lat" : -37.81058764460133,
    "lng" : 145.1577768216514,
    "name" : "Springfield Road",
    "type" : "bus",
}
{
    "lat" : -37.81082493628017,
    "lng" : 145.15773038590783,
    "name" : "Springfield Road",
    "type" : "bus",
}
{
    "lat" : -37.81088302286915,
    "lng" : 145.15607672023071,
    "name" : "Surrey Road",
    "type" : "bus",
}
{
    "lat" : -37.810836922401705,
    "lng" : 145.15608468303873,
    "name" : "Surrey Road",
    "type" : "bus",
}
{
    "lat" : -37.817252766366835,
    "lng" : 145.18783617045034,
    "name" : "McGlone Street",
    "type" : "bus",
}
{
    "lat" : -37.81688387880817,
    "lng" : 145.189470138655,
    "name" : "Alexander Street",
    "type" : "bus",
}
{
    "lat" : -37.944863554146195,
    "lng" : 145.1693796387574,
    "name" : "Bus stop",
    "type" : "bus",
}
{
    "lat" : -38.053981935687034,
    "lng" : 145.14472175600156,
    "name" : "The Parkway/Wells Rd",
    "type" : "bus",
}
{
    "lat" : -38.06225043171062,
    "lng" : 145.14519323805507,
    "name" : "Legana Ct/Gladesville Bvd",
    "type" : "bus",
}
{
    "lat" : -38.06855580219192,
    "lng" : 145.1432060564507,
    "name" : "Lakeview SC/Thompson Rd",
    "type" : "bus",
}
{
    "lat" : -38.06680725337091,
    "lng" : 145.1444778426192,
    "name" : "Thompson Rd/Gladesville Bvd",
    "type" : "bus",
}
{
    "lat" : -38.065107906321515,
    "lng" : 145.14401407191662,
    "name" : "Gladesville Bvd",
    "type" : "bus",
}
{
    "lat" : -38.070260346021286,
    "lng" : 145.13881888451067,
    "name" : "Patterson Lakes Retirement Village/McLeod Rd",
    "type" : "bus",
}
{
    "lat" : -38.0504217223141,
    "lng" : 145.14330026904236,
    "name" : "Fielding Dr/Wells Rd",
    "type" : "bus",
}
{
    "lat" : -38.04815936282853,
    "lng" : 145.14168792614794,
    "name" : "Lynne St/Wells Rd",
    "type" : "bus",
}
{
    "lat" : -38.045778064136925,
    "lng" : 145.14040105255367,
    "name" : "Seccull Dr/Wells Rd",
    "type" : "bus",
}
{
    "lat" : -38.04770162709622,
    "lng" : 145.14158524783403,
    "name" : "Lynne St/Wells Rd",
    "type" : "bus",
}
{
    "lat" : -38.04590245158002,
    "lng" : 145.14058084437676,
    "name" : "Seccull Dr/Wells Rd",
    "type" : "bus",
}
{
    "lat" : -38.06224791713967,
    "lng" : 145.14539809176864,
    "name" : "Legana Ct/Gladesville Bvd",
    "type" : "bus",
}
{
    "lat" : -38.065139170820345,
    "lng" : 145.14417835721883,
    "name" : "Nanda Ct/Gladesville Bvd",
    "type" : "bus",
}
{
    "lat" : -38.0687569678681,
    "lng" : 145.14309021854888,
    "name" : "Lakeview SC/Thompson Rd",
    "type" : "bus",
}
{
    "lat" : -38.05396525569972,
    "lng" : 145.14490322420528,
    "name" : "The Parkway/Wells Rd",
    "type" : "bus",
}
{
    "lat" : -38.05136896119174,
    "lng" : 145.14396763617304,
    "name" : "Fielding Dr/Wells Rd",
    "type" : "bus",
}
{
    "lat" : -38.070329748179574,
    "lng" : 145.1390408373067,
    "name" : "Patterson Lakes Retirement Village/McLeod Rd",
    "type" : "bus",
}
{
    "lat" : -38.06725501463842,
    "lng" : 145.14485318424335,
    "name" : "Thompson Rd/Gladesville Bvd",
    "type" : "bus",
}
{
    "lat" : -37.87588535253201,
    "lng" : 144.99517862892128,
    "name" : "Ripponlea",
    "type" : "train",
}
{
    "lat" : -37.855375506018675,
    "lng" : 144.98251248357872,
    "name" : "Stop 30: St Kilda Junction",
    "type" : "tram",
}
{
    "lat" : -37.857634428923944,
    "lng" : 144.98329443132576,
    "name" : "St Kilda Junction",
    "type" : "bus",
}
{
    "lat" : -37.85772847387753,
    "lng" : 144.98334547711607,
    "name" : "St Kilda Junction",
    "type" : "bus",
}
{
    "lat" : -37.85693856332247,
    "lng" : 144.98220822049353,
    "name" : "Stop 131: St Kilda Road",
    "type" : "tram",
}
{
    "lat" : -37.864053709469374,
    "lng" : 144.9854698704754,
    "name" : "Stop 34: Inkerman Street",
    "type" : "tram",
}
{
    "lat" : -37.8683294020972,
    "lng" : 144.9900885505811,
    "name" : "Stop 37: Chapel Street",
    "type" : "tram",
}
{
    "lat" : -37.868203925006696,
    "lng" : 144.9904003573792,
    "name" : "Stop 37: Carlisle Street",
    "type" : "tram",
}
{
    "lat" : -37.871281340756866,
    "lng" : 144.98932772523005,
    "name" : "Chapel Street",
    "type" : "bus",
}
{
    "lat" : -37.87012086626248,
    "lng" : 144.98835785521385,
    "name" : "Stop 36: St Kilda Primary School",
    "type" : "tram",
}
{
    "lat" : -37.87014483850555,
    "lng" : 144.988419043107,
    "name" : "Stop 36: St Kilda Primary School",
    "type" : "tram",
}
{
    "lat" : -37.87894508246646,
    "lng" : 144.99390206506797,
    "name" : "Stop 40: Scott Street",
    "type" : "tram",
}
{
    "lat" : -37.878954721655106,
    "lng" : 144.99395176975378,
    "name" : "Stop 40: Scott Street",
    "type" : "tram",
}
{
    "lat" : -37.88083704565079,
    "lng" : 144.9950948937086,
    "name" : "Stop 41: Coleridge Street",
    "type" : "tram",
}
{
    "lat" : -37.88084215861173,
    "lng" : 144.99514049126185,
    "name" : "Stop 41: Coleridge Street",
    "type" : "tram",
}
{
    "lat" : -37.85909011404809,
    "lng" : 145.00091436526293,
    "name" : "Hotham Street",
    "type" : "bus",
}
{
    "lat" : -37.8583881296573,
    "lng" : 145.00156446567308,
    "name" : "Dandenong Road",
    "type" : "bus",
}
{
    "lat" : -37.859470233357,
    "lng" : 145.00117018094778,
    "name" : "Dandenong Road",
    "type" : "bus",
}
{
    "lat" : -37.8560823519133,
    "lng" : 144.9920698648533,
    "name" : "Windsor",
    "type" : "train",
}
{
    "lat" : -37.85602007437271,
    "lng" : 144.98298539055577,
    "name" : "St Kilda Junction",
    "type" : "bus",
}
{
    "lat" : -37.85934484008553,
    "lng" : 144.97766548043057,
    "name" : "Stop 132: St Kilda Station, Fitzroy Street",
    "type" : "tram",
}
{
    "lat" : -37.855036709492396,
    "lng" : 144.98236177695964,
    "name" : "Stop 30: St Kilda Junction",
    "type" : "tram",
}
{
    "lat" : -37.85683923776986,
    "lng" : 144.9823648782638,
    "name" : "Stop 131: St Kilda Road",
    "type" : "tram",
}
{
    "lat" : -37.85791782107023,
    "lng" : 144.98054541854196,
    "name" : "Stop 132: Princes Street",
    "type" : "tram",
}
{
    "lat" : -37.858048075845545,
    "lng" : 144.98024601696056,
    "name" : "Stop 132: Princes Street",
    "type" : "tram",
}
{
    "lat" : -37.86698653738978,
    "lng" : 144.97856737321206,
    "name" : "Stop 32: Havelock Street",
    "type" : "tram",
}
{
    "lat" : -37.86713045466726,
    "lng" : 144.98108747622018,
    "name" : "Stop 33: Barkly Street",
    "type" : "tram",
}
{
    "lat" : -37.867196168788155,
    "lng" : 144.98134496828567,
    "name" : "Stop 33: Barkly Street",
    "type" : "tram",
}
{
    "lat" : -37.867544855960176,
    "lng" : 144.98396607322707,
    "name" : "Stop 34: Greeves Street",
    "type" : "tram",
}
{
    "lat" : -37.867516022213266,
    "lng" : 144.98397655060603,
    "name" : "Stop 34: Greeves Street",
    "type" : "tram",
}
{
    "lat" : -37.86786630194686,
    "lng" : 144.98656697778182,
    "name" : "Stop 35: Brighton Road",
    "type" : "tram",
}
{
    "lat" : -37.86805497858731,
    "lng" : 144.98773197850392,
    "name" : "Stop 35: Brighton Road",
    "type" : "tram",
}
{
    "lat" : -37.856218976935025,
    "lng" : 144.98741681894455,
    "name" : "Stop 31: Queens Way",
    "type" : "tram",
}
{
    "lat" : -37.85618343766558,
    "lng" : 144.98735504431818,
    "name" : "Stop 31: Queens Way",
    "type" : "tram",
}
{
    "lat" : -37.85794011693267,
    "lng" : 144.9922159614256,
    "name" : "Stop 42: Dandenong Road",
    "type" : "tram",
}
{
    "lat" : -37.85736662711753,
    "lng" : 144.99235552011345,
    "name" : "Stop 42: Dandenong Road",
    "type" : "tram",
}
{
    "lat" : -37.85824345800853,
    "lng" : 144.99575714787835,
    "name" : "Stop 33: Hornby Street",
    "type" : "tram",
}
{
    "lat" : -37.85828167948699,
    "lng" : 144.99579386061424,
    "name" : "Stop 33: Hornby Street",
    "type" : "tram",
}
{
    "lat" : -37.8684880715243,
    "lng" : 144.99030756971104,
    "name" : "Stop 37: Carlisle Street",
    "type" : "tram",
}
{
    "lat" : -37.8681399710855,
    "lng" : 144.98863043470504,
    "name" : "Stop 36: St Kilda Town Hall",
    "type" : "tram",
}
{
    "lat" : -37.86819344762773,
    "lng" : 144.988801928444,
    "name" : "Stop 36: St Kilda Town Hall",
    "type" : "tram",
}
{
    "lat" : -37.868420932479864,
    "lng" : 144.9904860204296,
    "name" : "Stop 37: Chapel Street",
    "type" : "tram",
}
{
    "lat" : -37.86878588054404,
    "lng" : 144.99373015223387,
    "name" : "Stop 38: Balaclava Station, Nelson Street",
    "type" : "tram",
}
{
    "lat" : -37.86877900738344,
    "lng" : 144.99338599128959,
    "name" : "Stop 38: Balaclava Station, Nelson Street",
    "type" : "tram",
}
{
    "lat" : -37.869188630991516,
    "lng" : 144.99669784887152,
    "name" : "Stop 39: Carlisle Avenue",
    "type" : "tram",
}
{
    "lat" : -37.86911755245262,
    "lng" : 144.99646307176363,
    "name" : "Stop 39: Orange Grove",
    "type" : "tram",
}
{
    "lat" : -37.869545448609614,
    "lng" : 144.99958105592515,
    "name" : "Stop 40: Hotham Street",
    "type" : "tram",
}
{
    "lat" : -37.86946364123466,
    "lng" : 144.9993149304994,
    "name" : "Stop 40: Hotham Street",
    "type" : "tram",
}
{
    "lat" : -37.86974175278195,
    "lng" : 145.0015217179669,
    "name" : "Stop 41: Empress Road",
    "type" : "tram",
}
{
    "lat" : -37.869812076949586,
    "lng" : 145.0017133282734,
    "name" : "Stop 41: Vadlure Avenue",
    "type" : "tram",
}
{
    "lat" : -37.853113230352136,
    "lng" : 145.00258923715506,
    "name" : "Stop 35: Williams Road",
    "type" : "tram",
}
{
    "lat" : -37.85304634276483,
    "lng" : 145.00231238289325,
    "name" : "Stop 35: Williams Road",
    "type" : "tram",
}
{
    "lat" : -37.85277896005357,
    "lng" : 145.00010852909185,
    "name" : "Stop 34: Lewisham Road",
    "type" : "tram",
}
{
    "lat" : -37.85269153680349,
    "lng" : 144.99967375977423,
    "name" : "Stop 34: Lewisham Road",
    "type" : "tram",
}
{
    "lat" : -37.85246966782648,
    "lng" : 144.99802344685838,
    "name" : "Stop 33: The Avenue",
    "type" : "tram",
}
{
    "lat" : -37.85257997367225,
    "lng" : 144.9986311348385,
    "name" : "Stop 33: The Avenue",
    "type" : "tram",
}
{
    "lat" : -37.852304963429106,
    "lng" : 144.99658921940636,
    "name" : "Stop 32: Hornby Street",
    "type" : "tram",
}
{
    "lat" : -37.852248804677856,
    "lng" : 144.996384952426,
    "name" : "Stop 32: Bangs Street",
    "type" : "tram",
}
{
    "lat" : -37.85413833711027,
    "lng" : 144.9929201251112,
    "name" : "Stop 44: Duke Street",
    "type" : "tram",
}
{
    "lat" : -37.8539715372371,
    "lng" : 144.99298743179367,
    "name" : "Stop 44: Duke Street",
    "type" : "tram",
}
{
    "lat" : -37.856172038277236,
    "lng" : 144.9925753774337,
    "name" : "Stop 43: Windsor Station",
    "type" : "tram",
}
{
    "lat" : -37.85626474212634,
    "lng" : 144.99252181707237,
    "name" : "Stop 43: Windsor Station",
    "type" : "tram",
}
{
    "lat" : -37.85954491611426,
    "lng" : 144.9919307252606,
    "name" : "Stop 41: St Michael's Grammar School",
    "type" : "tram",
}
{
    "lat" : -37.86159127395504,
    "lng" : 144.99156116714965,
    "name" : "Stop 40: Alma Road",
    "type" : "tram",
}
{
    "lat" : -37.85936747122409,
    "lng" : 144.99199828340016,
    "name" : "Stop 41: St Michael's Grammar School",
    "type" : "tram",
}
{
    "lat" : -37.86134316962111,
    "lng" : 144.99164364507692,
    "name" : "Stop 40: Alma Road",
    "type" : "tram",
}
{
    "lat" : -37.86336790215171,
    "lng" : 144.99127987047916,
    "name" : "Stop 39: Argyle Street",
    "type" : "tram",
}
{
    "lat" : -37.863411739505295,
    "lng" : 144.991234524383,
    "name" : "Stop 39: Argyle Street",
    "type" : "tram",
}
{
    "lat" : -37.86543412510301,
    "lng" : 144.99087133651852,
    "name" : "Stop 38: Inkerman Street",
    "type" : "tram",
}
{
    "lat" : -37.86520085673769,
    "lng" : 144.9909502940464,
    "name" : "Stop 38: Inkerman Street",
    "type" : "tram",
}
{
    "lat" : -37.87176623385545,
    "lng" : 144.98943677379037,
    "name" : "Stop 37: Chapel Street",
    "type" : "tram",
}
{
    "lat" : -37.87290173027836,
    "lng" : 144.99010556584454,
    "name" : "Stop 38: Wimbeldon Avenue",
    "type" : "tram",
}
{
    "lat" : -37.876052403862246,
    "lng" : 144.9920846170029,
    "name" : "Stop 39: Glen Eira Road",
    "type" : "tram",
}
{
    "lat" : -37.87276753600855,
    "lng" : 144.99006482979513,
    "name" : "Stop 38: Brunning Street",
    "type" : "tram",
}
{
    "lat" : -37.876602927262695,
    "lng" : 144.99247336967204,
    "name" : "Stop 39: Glen Eira Road",
    "type" : "tram",
}
{
    "lat" : -37.88285054643114,
    "lng" : 144.99636743424838,
    "name" : "Stop 42: Hotham Street",
    "type" : "tram",
}
{
    "lat" : -37.882995804813135,
    "lng" : 144.99650095796596,
    "name" : "Stop 42: Hotham Street",
    "type" : "tram",
}
{
    "lat" : -37.88384916637523,
    "lng" : 144.99751483297382,
    "name" : "Stop 43: Brighton Road",
    "type" : "tram",
}
{
    "lat" : -37.883862242144176,
    "lng" : 144.99783795534114,
    "name" : "Stop 43: Brighton Road",
    "type" : "tram",
}
{
    "lat" : -37.884191818576966,
    "lng" : 145.00033064952595,
    "name" : "Stop 44: Elsternwick Station, Gordon Street",
    "type" : "tram",
}
{
    "lat" : -37.88424537893823,
    "lng" : 145.00051169863445,
    "name" : "Stop 44: Elsternwick Station, Gordon Street",
    "type" : "tram",
}
{
    "lat" : -37.867030374743365,
    "lng" : 144.97859637459703,
    "name" : "Stop 32: Havelock Street",
    "type" : "tram",
}
{
    "lat" : -37.866938509084605,
    "lng" : 144.97779917178616,
    "name" : "Luna Park, Acland Street",
    "type" : "bus",
}
{
    "lat" : -37.8678159267088,
    "lng" : 144.98591084240138,
    "name" : "Blessington Street",
    "type" : "bus",
}
{
    "lat" : -37.86729071665596,
    "lng" : 144.98166674954848,
    "name" : "Barkly Street",
    "type" : "bus",
}
{
    "lat" : -37.867189882360776,
    "lng" : 144.98180002180897,
    "name" : "Barkly Street",
    "type" : "bus",
}
{
    "lat" : -37.86724000614174,
    "lng" : 144.98178887387775,
    "name" : "Barkly Street",
    "type" : "bus",
}
{
    "lat" : -37.867225505449255,
    "lng" : 144.98168007677452,
    "name" : "Barkly Street",
    "type" : "bus",
}
{
    "lat" : -37.86744242910339,
    "lng" : 144.98396414538934,
    "name" : "Greeves Street",
    "type" : "bus",
}
{
    "lat" : -37.867527253963516,
    "lng" : 144.98394746540203,
    "name" : "Greeves Street",
    "type" : "bus",
}
{
    "lat" : -37.8665716331827,
    "lng" : 144.98133373653542,
    "name" : "Carlisle Street",
    "type" : "bus",
}
{
    "lat" : -37.8704507779714,
    "lng" : 144.98837847469565,
    "name" : "Dickens Street",
    "type" : "bus",
}
{
    "lat" : -37.87048003081347,
    "lng" : 144.9882971702349,
    "name" : "Dickens Street",
    "type" : "bus",
}
{
    "lat" : -37.86657833870524,
    "lng" : 144.9813888894583,
    "name" : "Carlisle Street",
    "type" : "bus",
}
{
    "lat" : -37.86786345209978,
    "lng" : 144.98590388542175,
    "name" : "Blessington Street",
    "type" : "bus",
}
{
    "lat" : -37.86680875722348,
    "lng" : 144.9811966924185,
    "name" : "National Theatre",
    "type" : "bus",
}
{
    "lat" : -37.866999613158725,
    "lng" : 144.9778024407284,
    "name" : "Luna Park, Acland Street",
    "type" : "bus",
}
{
    "lat" : -37.866828538514966,
    "lng" : 144.9812866302396,
    "name" : "National Theatre",
    "type" : "bus",
}
{
    "lat" : -37.85681962411644,
    "lng" : 144.98234937174294,
    "name" : "Stop 131: St Kilda Road",
    "type" : "tram",
}
{
    "lat" : -37.85598730113131,
    "lng" : 144.98286234421715,
    "name" : "St Kilda Junction",
    "type" : "bus",
}
{
    "lat" : -37.856954824214625,
    "lng" : 144.9822258224902,
    "name" : "Stop 131: St Kilda Road",
    "type" : "tram",
}
{
    "lat" : -37.85792511332599,
    "lng" : 144.98055597973996,
    "name" : "Stop 132: Princes Street",
    "type" : "tram",
}
{
    "lat" : -37.858038771933025,
    "lng" : 144.9802275767736,
    "name" : "Stop 132: Princes Street",
    "type" : "tram",
}
{
    "lat" : -37.866960050575756,
    "lng" : 144.97687615660874,
    "name" : "Stop 138: Luna Park",
    "type" : "tram",
}
{
    "lat" : -37.85250227342982,
    "lng" : 144.98146323693948,
    "name" : "Stop 29: Union Street",
    "type" : "tram",
}
{
    "lat" : -37.86701880771699,
    "lng" : 144.9772339800552,
    "name" : "Stop 138: Luna Park",
    "type" : "tram",
}
{
    "lat" : -37.858287211543086,
    "lng" : 144.9835589641899,
    "name" : "Stop 31: Barkly Street",
    "type" : "tram",
}
{
    "lat" : -37.85990517031266,
    "lng" : 144.98406464440836,
    "name" : "Stop 32: Alma Road",
    "type" : "tram",
}
{
    "lat" : -37.85534172694889,
    "lng" : 144.98253687491695,
    "name" : "Stop 30: St Kilda Junction",
    "type" : "tram",
}
{
    "lat" : -37.8624207470931,
    "lng" : 144.98491498848534,
    "name" : "Stop 33: Argyle Street",
    "type" : "tram",
}
{
    "lat" : -37.85803407806725,
    "lng" : 144.98339526562097,
    "name" : "Stop 31: Barkly Street",
    "type" : "tram",
}
{
    "lat" : -37.862103324419934,
    "lng" : 144.98484784944094,
    "name" : "Stop 33: Argyle Street",
    "type" : "tram",
}
{
    "lat" : -37.85306461531374,
    "lng" : 144.98170589303635,
    "name" : "Stop 29: Union Street",
    "type" : "tram",
}
{
    "lat" : -37.861008144951285,
    "lng" : 144.98447954861547,
    "name" : "Stop 32: Alma Road",
    "type" : "tram",
}
{
    "lat" : -37.855072416399906,
    "lng" : 144.98232933899436,
    "name" : "Stop 30: St Kilda Junction",
    "type" : "tram",
}
{
    "lat" : -37.86706583019381,
    "lng" : 144.98106752729063,
    "name" : "Stop 33: Barkly Street",
    "type" : "tram",
}
{
    "lat" : -37.86755147766368,
    "lng" : 144.98678867912076,
    "name" : "Stop 35: Carlisle Street",
    "type" : "tram",
}
{
    "lat" : -37.87012522485213,
    "lng" : 144.98834377361652,
    "name" : "Stop 36: St Kilda Primary School",
    "type" : "tram",
}
{
    "lat" : -37.870140060820745,
    "lng" : 144.98843605837044,
    "name" : "Stop 36: St Kilda Primary School",
    "type" : "tram",
}
{
    "lat" : -37.86741141606166,
    "lng" : 144.9866681473531,
    "name" : "Stop 35: Carlisle Street",
    "type" : "tram",
}
{
    "lat" : -37.868077777363936,
    "lng" : 144.98864426484528,
    "name" : "Stop 36: St Kilda Town Hall",
    "type" : "tram",
}
{
    "lat" : -37.865138243920995,
    "lng" : 144.98587672805547,
    "name" : "Stop 34: Inkerman Street",
    "type" : "tram",
}
{
    "lat" : -37.86785641130112,
    "lng" : 144.98656488230603,
    "name" : "Stop 35: Brighton Road",
    "type" : "tram",
}
{
    "lat" : -37.8672541715581,
    "lng" : 144.9813495783324,
    "name" : "Stop 33: Barkly Street",
    "type" : "tram",
}
{
    "lat" : -37.8675832450767,
    "lng" : 144.9839613793613,
    "name" : "Stop 34: Greeves Street",
    "type" : "tram",
}
{
    "lat" : -37.868110382967274,
    "lng" : 144.98772694936196,
    "name" : "Stop 35: Brighton Road",
    "type" : "tram",
}
{
    "lat" : -37.867446955331104,
    "lng" : 144.98398794999434,
    "name" : "Stop 34: Greeves Street",
    "type" : "tram",
}
{
    "lat" : -37.86823443513424,
    "lng" : 144.9887768665535,
    "name" : "Stop 36: St Kilda Town Hall",
    "type" : "tram",
}
{
    "lat" : -37.856170026620475,
    "lng" : 144.98735278120432,
    "name" : "Stop 31: Queens Way",
    "type" : "tram",
}
{
    "lat" : -37.8562342319988,
    "lng" : 144.98741388527844,
    "name" : "Stop 31: Queens Way",
    "type" : "tram",
}
{
    "lat" : -37.859478782898236,
    "lng" : 145.00127822367972,
    "name" : "Dandenong Road",
    "type" : "bus",
}
{
    "lat" : -37.858379580116065,
    "lng" : 145.00147327056652,
    "name" : "Dandenong Road",
    "type" : "bus",
}
{
    "lat" : -37.85740065764443,
    "lng" : 144.99168044163184,
    "name" : "Stop 32: Chapel Street",
    "type" : "tram",
}
{
    "lat" : -37.85750660490055,
    "lng" : 144.99192502556645,
    "name" : "Stop 32: Chapel Street",
    "type" : "tram",
}
{
    "lat" : -37.85823013078249,
    "lng" : 144.99575882425898,
    "name" : "Stop 33: Hornby Street",
    "type" : "tram",
}
{
    "lat" : -37.85830070640719,
    "lng" : 144.99579017257685,
    "name" : "Stop 33: Hornby Street",
    "type" : "tram",
}
{
    "lat" : -37.858446467703374,
    "lng" : 144.99724518714874,
    "name" : "Stop 34: The Avenue",
    "type" : "tram",
}
{
    "lat" : -37.85852542523128,
    "lng" : 144.99755816741322,
    "name" : "Stop 34: Westbury Street",
    "type" : "tram",
}
{
    "lat" : -37.859189271962606,
    "lng" : 145.00089558979982,
    "name" : "Hotham Street",
    "type" : "bus",
}
{
    "lat" : -37.859074858984314,
    "lng" : 145.00160503408443,
    "name" : "Stop 35: Hotham Street",
    "type" : "tram",
}
{
    "lat" : -37.85910260308381,
    "lng" : 145.00209009482109,
    "name" : "Stop 35: Williams Road",
    "type" : "tram",
}
{
    "lat" : -37.8579280469921,
    "lng" : 144.992140440478,
    "name" : "Stop 42: Dandenong Road",
    "type" : "tram",
}
{
    "lat" : -37.857373248821034,
    "lng" : 144.9924576955131,
    "name" : "Stop 42: Dandenong Road",
    "type" : "tram",
}
{
    "lat" : -37.85893563557258,
    "lng" : 145.001920864196,
    "name" : "Williams Road",
    "type" : "bus",
}
{
    "lat" : -37.858854414930846,
    "lng" : 145.00193528106945,
    "name" : "Williams Road",
    "type" : "bus",
}
{
    "lat" : -37.86918821189636,
    "lng" : 144.99951441979488,
    "name" : "Balaclava Road",
    "type" : "bus",
}
{
    "lat" : -37.86920598153111,
    "lng" : 144.99961852303232,
    "name" : "Balaclava Road",
    "type" : "bus",
}
{
    "lat" : -37.869782572650394,
    "lng" : 144.99940419776817,
    "name" : "Carlisle Street",
    "type" : "bus",
}
{
    "lat" : -37.86956522990113,
    "lng" : 144.99353032766226,
    "name" : "Balaclava",
    "type" : "train",
}
{
    "lat" : -37.86962801035588,
    "lng" : 144.99347383363482,
    "name" : "Balaclava",
    "type" : "train",
}
{
    "lat" : -37.86976882632919,
    "lng" : 144.99928634820952,
    "name" : "Carlisle Street",
    "type" : "bus",
}
{
    "lat" : -37.868466865309244,
    "lng" : 144.99048409259188,
    "name" : "Stop 37: Chapel Street",
    "type" : "tram",
}
{
    "lat" : -37.86874774288461,
    "lng" : 144.99373962378445,
    "name" : "Stop 38: Balaclava Station, Nelson Street",
    "type" : "tram",
}
{
    "lat" : -37.86827064495597,
    "lng" : 144.99010078815974,
    "name" : "Stop 37: Chapel Street",
    "type" : "tram",
}
{
    "lat" : -37.86821096580536,
    "lng" : 144.99048317058254,
    "name" : "Stop 37: Carlisle Street",
    "type" : "tram",
}
{
    "lat" : -37.86922215860423,
    "lng" : 144.99669801650958,
    "name" : "Stop 39: Carlisle Avenue",
    "type" : "tram",
}
{
    "lat" : -37.86852143149892,
    "lng" : 144.99021729661388,
    "name" : "Stop 37: Carlisle Street",
    "type" : "tram",
}
{
    "lat" : -37.868806667663904,
    "lng" : 144.9933836443567,
    "name" : "Stop 38: Balaclava Station, Nelson Street",
    "type" : "tram",
}
{
    "lat" : -37.86968316327875,
    "lng" : 145.00156169964504,
    "name" : "Stop 41: Empress Road",
    "type" : "tram",
}
{
    "lat" : -37.86941041614949,
    "lng" : 144.99929942397847,
    "name" : "Stop 40: Hotham Street",
    "type" : "tram",
}
{
    "lat" : -37.869056029283314,
    "lng" : 144.9964503312708,
    "name" : "Stop 39: Orange Grove",
    "type" : "tram",
}
{
    "lat" : -37.869604541027,
    "lng" : 144.99972832596387,
    "name" : "Stop 40: Hotham Street",
    "type" : "tram",
}
{
    "lat" : -37.86985298063706,
    "lng" : 145.00165825916957,
    "name" : "Stop 41: Vadlure Avenue",
    "type" : "tram",
}
{
    "lat" : -37.88256916594159,
    "lng" : 144.99692684246622,
    "name" : "Brighton Road",
    "type" : "bus",
}
{
    "lat" : -37.8825581018294,
    "lng" : 144.9968212304862,
    "name" : "Brighton Road",
    "type" : "bus",
}
{
    "lat" : -37.87124270018322,
    "lng" : 144.98942554204012,
    "name" : "Chapel Street",
    "type" : "bus",
}
{
    "lat" : -37.883879257407614,
    "lng" : 144.9978606702988,
    "name" : "Brighton Road",
    "type" : "bus",
}
{
    "lat" : -37.88380926851613,
    "lng" : 144.99787064476357,
    "name" : "Brighton Road",
    "type" : "bus",
}
{
    "lat" : -37.87549475584413,
    "lng" : 144.99198269306027,
    "name" : "Glen Eira Road",
    "type" : "bus",
}
{
    "lat" : -37.875469526315555,
    "lng" : 144.99206667973004,
    "name" : "Glen Eira Road",
    "type" : "bus",
}
{
    "lat" : -37.87145836655188,
    "lng" : 144.98978965191395,
    "name" : "Stop 36: Brighton Road",
    "type" : "tram",
}
{
    "lat" : -37.87895011160836,
    "lng" : 144.99389192296513,
    "name" : "Stop 40: Scott Street",
    "type" : "tram",
}
{
    "lat" : -37.87895061452255,
    "lng" : 144.9939663542653,
    "name" : "Stop 40: Scott Street",
    "type" : "tram",
}
{
    "lat" : -37.88084014695497,
    "lng" : 144.99515398612596,
    "name" : "Stop 41: Coleridge Street",
    "type" : "tram",
}
{
    "lat" : -37.88084064986916,
    "lng" : 144.99508282376803,
    "name" : "Stop 41: Coleridge Street",
    "type" : "tram",
}
{
    "lat" : -37.8760565109948,
    "lng" : 144.99206533862554,
    "name" : "Stop 39: Glen Eira Road",
    "type" : "tram",
}
{
    "lat" : -37.8729235232266,
    "lng" : 144.99008997550465,
    "name" : "Stop 38: Wimbeldon Avenue",
    "type" : "tram",
}
{
    "lat" : -37.87659538354984,
    "lng" : 144.9925012814096,
    "name" : "Stop 39: Glen Eira Road",
    "type" : "tram",
}
{
    "lat" : -37.871761456170645,
    "lng" : 144.98945387287284,
    "name" : "Stop 37: Chapel Street",
    "type" : "tram",
}
{
    "lat" : -37.87146155167508,
    "lng" : 144.9898740576789,
    "name" : "Stop 36: Brighton Road",
    "type" : "tram",
}
{
    "lat" : -37.872763261237935,
    "lng" : 144.99007857611633,
    "name" : "Stop 38: Brunning Street",
    "type" : "tram",
}
{
    "lat" : -37.8828544021066,
    "lng" : 144.99635729214555,
    "name" : "Stop 42: Hotham Street",
    "type" : "tram",
}
{
    "lat" : -37.88380767595453,
    "lng" : 144.99783577604632,
    "name" : "Stop 43: Brighton Road",
    "type" : "tram",
}
{
    "lat" : -37.88413683329213,
    "lng" : 145.00039695038004,
    "name" : "Stop 44: Elsternwick Station, Gordon Street",
    "type" : "tram",
}
{
    "lat" : -37.88299261968993,
    "lng" : 144.9965134470017,
    "name" : "Stop 42: Hotham Street",
    "type" : "tram",
}
{
    "lat" : -37.8839193229048,
    "lng" : 144.99759236557816,
    "name" : "Stop 43: Brighton Road",
    "type" : "tram",
}
{
    "lat" : -37.88430933285946,
    "lng" : 145.0005169792335,
    "name" : "Stop 44: Elsternwick Station, Gordon Street",
    "type" : "tram",
}
{
    "lat" : -37.872355481648555,
    "lng" : 144.98956434635664,
    "name" : "Wimbledon Avenue",
    "type" : "bus",
}
{
    "lat" : -37.8723791186155,
    "lng" : 144.989491256161,
    "name" : "Wimbledon Avenue",
    "type" : "bus",
}
{
    "lat" : -37.853395700489074,
    "lng" : 145.00229964240043,
    "name" : "High Street",
    "type" : "bus",
}
{
    "lat" : -37.85340391475421,
    "lng" : 145.00238497017472,
    "name" : "High Street",
    "type" : "bus",
}
{
    "lat" : -37.85352084230345,
    "lng" : 145.00236359632163,
    "name" : "High Street",
    "type" : "bus",
}
{
    "lat" : -37.853528805111495,
    "lng" : 145.00244012309759,
    "name" : "High Street",
    "type" : "bus",
}
{
    "lat" : -37.852173451368316,
    "lng" : 144.9963867964447,
    "name" : "Stop 32: Bangs Street",
    "type" : "tram",
}
{
    "lat" : -37.85237352739708,
    "lng" : 144.99657589218032,
    "name" : "Stop 32: Hornby Street",
    "type" : "tram",
}
{
    "lat" : -37.8523894530131,
    "lng" : 144.99803493006573,
    "name" : "Stop 33: The Avenue",
    "type" : "tram",
}
{
    "lat" : -37.852645771612146,
    "lng" : 144.99862107655468,
    "name" : "Stop 33: The Avenue",
    "type" : "tram",
}
{
    "lat" : -37.852608639781096,
    "lng" : 144.99967644198324,
    "name" : "Stop 34: Lewisham Road",
    "type" : "tram",
}
{
    "lat" : -37.853164611418606,
    "lng" : 145.00258336982284,
    "name" : "Stop 35: Williams Road",
    "type" : "tram",
}
{
    "lat" : -37.852843752165114,
    "lng" : 145.00009897372223,
    "name" : "Stop 34: Lewisham Road",
    "type" : "tram",
}
{
    "lat" : -37.85296126644761,
    "lng" : 145.00232185444384,
    "name" : "Stop 35: Williams Road",
    "type" : "tram",
}
{
    "lat" : -37.86936448332011,
    "lng" : 144.9808054251784,
    "name" : "Acland Street",
    "type" : "bus",
}
{
    "lat" : -37.86912182722324,
    "lng" : 144.98085177710294,
    "name" : "Acland Street",
    "type" : "bus",
}
{
    "lat" : -37.869106907435594,
    "lng" : 144.98074792532265,
    "name" : "Acland Street",
    "type" : "bus",
}
{
    "lat" : -37.86937412250876,
    "lng" : 144.98089854812264,
    "name" : "Acland Street",
    "type" : "bus",
}
{
    "lat" : -37.865209071002795,
    "lng" : 144.99103503508746,
    "name" : "Stop 38: Inkerman Street",
    "type" : "tram",
}
{
    "lat" : -37.86543135907496,
    "lng" : 144.99079908451313,
    "name" : "Stop 38: Inkerman Street",
    "type" : "tram",
}
{
    "lat" : -37.86337393712199,
    "lng" : 144.99134885354232,
    "name" : "Stop 39: Argyle Street",
    "type" : "tram",
}
{
    "lat" : -37.86340947639144,
    "lng" : 144.99116587659603,
    "name" : "Stop 39: Argyle Street",
    "type" : "tram",
}
{
    "lat" : -37.86135406609523,
    "lng" : 144.99172033949094,
    "name" : "Stop 40: Alma Road",
    "type" : "tram",
}
{
    "lat" : -37.861588005012806,
    "lng" : 144.99148564620208,
    "name" : "Stop 40: Alma Road",
    "type" : "tram",
}
{
    "lat" : -37.85937375765147,
    "lng" : 144.99207975549905,
    "name" : "Stop 41: St Michael's Grammar School",
    "type" : "tram",
}
{
    "lat" : -37.85953955169623,
    "lng" : 144.99185914380752,
    "name" : "Stop 41: St Michael's Grammar School",
    "type" : "tram",
}
{
    "lat" : -37.85618268329429,
    "lng" : 144.99265006019095,
    "name" : "Stop 43: Windsor Station",
    "type" : "tram",
}
{
    "lat" : -37.856259964441534,
    "lng" : 144.9924515767238,
    "name" : "Stop 43: Windsor Station",
    "type" : "tram",
}
{
    "lat" : -37.85397966768318,
    "lng" : 144.99304702712527,
    "name" : "Stop 44: Duke Street",
    "type" : "tram",
}
{
    "lat" : -37.85413104485451,
    "lng" : 144.9928659780167,
    "name" : "Stop 44: Duke Street",
    "type" : "tram",
}
{
    "lat" : -37.8557569664321,
    "lng" : 144.9916631749113,
    "name" : "Windsor",
    "type" : "train",
}
{
    "lat" : -37.8559479061864,
    "lng" : 144.99186073636912,
    "name" : "Windsor",
    "type" : "train",
}
{
    "lat" : -37.86895787719715,
    "lng" : 144.98013898005706,
    "name" : "Stop 139: Acland Street Plaza",
    "type" : "tram",
}
{
    "lat" : -37.868974473365455,
    "lng" : 144.98010729646307,
    "name" : "Stop 139: Acland Street Plaza",
    "type" : "tram",
}
{
    "lat" : -37.856282008846875,
    "lng" : 145.01911809875617,
    "name" : "Armadale",
    "type" : "train",
}
{
    "lat" : -37.8728476670029,
    "lng" : 145.02466256006738,
    "name" : "Stop 51: Balaclava Road",
    "type" : "tram",
}
{
    "lat" : -37.872701151335434,
    "lng" : 145.02494796387043,
    "name" : "Stop 51: Hawthorn Road",
    "type" : "tram",
}
{
    "lat" : -37.86214431192644,
    "lng" : 145.01957633740267,
    "name" : "Dandenong Road",
    "type" : "bus",
}
{
    "lat" : -37.86239903796388,
    "lng" : 145.02853743008546,
    "name" : "Stop 45: Glenferrie Road",
    "type" : "tram",
}
{
    "lat" : -37.862164512313086,
    "lng" : 145.02840197853016,
    "name" : "Stop 54: Wattletree Road",
    "type" : "tram",
}
{
    "lat" : -37.862018248102714,
    "lng" : 145.02549102737703,
    "name" : "Stop 44: Duncraig Avenue",
    "type" : "tram",
}
{
    "lat" : -37.86129195619273,
    "lng" : 145.0198537783977,
    "name" : "Stop 42: Kooyong Road",
    "type" : "tram",
}
{
    "lat" : -37.85901937078529,
    "lng" : 145.0288801661062,
    "name" : "Stop 56: Malvern Tram Depot",
    "type" : "tram",
}
{
    "lat" : -37.86302164573161,
    "lng" : 145.03350722811507,
    "name" : "Stop 47: Cabrini Hospital",
    "type" : "tram",
}
{
    "lat" : -37.86190794225695,
    "lng" : 145.0176639223746,
    "name" : "Stop 41: Cantala Avenue",
    "type" : "tram",
}
{
    "lat" : -37.861958149856946,
    "lng" : 145.01768554768478,
    "name" : "Stop 41: Cantala Avenue",
    "type" : "tram",
}
{
    "lat" : -37.86383896511006,
    "lng" : 145.02197708210957,
    "name" : "Stop 43: Matlock Court",
    "type" : "tram",
}
{
    "lat" : -37.86379487629938,
    "lng" : 145.0219684487493,
    "name" : "Stop 43: Egerton Road",
    "type" : "tram",
}
{
    "lat" : -37.86461630281036,
    "lng" : 145.02375656015334,
    "name" : "Stop 44: Bailey Avenue",
    "type" : "tram",
}
{
    "lat" : -37.86469551179536,
    "lng" : 145.02403207331065,
    "name" : "Stop 44: Bailey Avenue",
    "type" : "tram",
}
{
    "lat" : -37.865260452069265,
    "lng" : 145.02784852146362,
    "name" : "Stop 53: Malvern Station",
    "type" : "tram",
}
{
    "lat" : -37.87177352611121,
    "lng" : 145.0176384413889,
    "name" : "Stop 46: Kooyong Road",
    "type" : "tram",
}
{
    "lat" : -37.87183680948016,
    "lng" : 145.01790129787247,
    "name" : "Stop 46: Kooyong Road",
    "type" : "tram",
}
{
    "lat" : -37.87219765041178,
    "lng" : 145.02106974109108,
    "name" : "Stop 47: Caulfield Junior College, Sebastopol Street",
    "type" : "tram",
}
{
    "lat" : -37.87224660072633,
    "lng" : 145.02121399364466,
    "name" : "Stop 47: Elmhurst Road",
    "type" : "tram",
}
{
    "lat" : -37.87241742391299,
    "lng" : 145.02478275655886,
    "name" : "Stop 51: Balaclava Road",
    "type" : "tram",
}
{
    "lat" : -37.87260945331471,
    "lng" : 145.02444831862226,
    "name" : "Stop 51: Hawthorn Road",
    "type" : "tram",
}
{
    "lat" : -37.87310532670645,
    "lng" : 145.02847649364935,
    "name" : "Stop 52: Caulfield Park Bowling Club",
    "type" : "tram",
}
{
    "lat" : -37.873095771336835,
    "lng" : 145.02814557611208,
    "name" : "Stop 52: Caulfield Park Bowling Club",
    "type" : "tram",
}
{
    "lat" : -37.87356532555262,
    "lng" : 145.0319446737255,
    "name" : "Stop 53: Caulfield Park",
    "type" : "tram",
}
{
    "lat" : -37.873455103525885,
    "lng" : 145.0313050506943,
    "name" : "Stop 53: Caulfield Park",
    "type" : "tram",
}
{
    "lat" : -37.86797920618261,
    "lng" : 145.02557174510457,
    "name" : "Stop 49: Wanda Road",
    "type" : "tram",
}
{
    "lat" : -37.8676867615809,
    "lng" : 145.02566696352466,
    "name" : "Stop 49: Arthur Street",
    "type" : "tram",
}
{
    "lat" : -37.86950228180828,
    "lng" : 145.02532347313257,
    "name" : "Stop 50: Inkerman Road",
    "type" : "tram",
}
{
    "lat" : -37.86970554296025,
    "lng" : 145.02524543761405,
    "name" : "Stop 50: Inkerman Road",
    "type" : "tram",
}
{
    "lat" : -37.86122213493928,
    "lng" : 145.01958002544006,
    "name" : "Stop 42: Kooyong Road",
    "type" : "tram",
}
{
    "lat" : -37.86098056848982,
    "lng" : 145.01775075889145,
    "name" : "Stop 41: Armadale Street",
    "type" : "tram",
}
{
    "lat" : -37.86165967028495,
    "lng" : 145.02271929963564,
    "name" : "Stop 43: Egerton Road",
    "type" : "tram",
}
{
    "lat" : -37.861940966955444,
    "lng" : 145.02513295247348,
    "name" : "Stop 44: Duncraig Avenue",
    "type" : "tram",
}
{
    "lat" : -37.86162455011066,
    "lng" : 145.02268241926163,
    "name" : "Stop 43: Egerton Road",
    "type" : "tram",
}
{
    "lat" : -37.86232611540626,
    "lng" : 145.02819888501625,
    "name" : "Stop 45: Glenferrie Road",
    "type" : "tram",
}
{
    "lat" : -37.86247657056825,
    "lng" : 145.02831111869978,
    "name" : "Stop 54: Wattletree Road",
    "type" : "tram",
}
{
    "lat" : -37.862695505879145,
    "lng" : 145.03101268991162,
    "name" : "Stop 46: Nicholls Street",
    "type" : "tram",
}
{
    "lat" : -37.862769266627055,
    "lng" : 145.0313399194115,
    "name" : "Stop 46: Soudan Street",
    "type" : "tram",
}
{
    "lat" : -37.86309666376502,
    "lng" : 145.03385013177393,
    "name" : "Stop 47: Cabrini Hospital",
    "type" : "tram",
}
{
    "lat" : -37.8641850538921,
    "lng" : 145.02807173154514,
    "name" : "Stop 53: Malvern Station",
    "type" : "tram",
}
{
    "lat" : -37.86110520739001,
    "lng" : 145.028575819202,
    "name" : "Stop 55: Edsall Street",
    "type" : "tram",
}
{
    "lat" : -37.86123864728853,
    "lng" : 145.0285134578424,
    "name" : "Stop 55: Llaneast Street",
    "type" : "tram",
}
{
    "lat" : -37.85887084346106,
    "lng" : 145.02894403620837,
    "name" : "Stop 56: Malvern Tram Depot",
    "type" : "tram",
}
{
    "lat" : -37.85681710954549,
    "lng" : 145.0292426834185,
    "name" : "Stop 57: High Street",
    "type" : "tram",
}
{
    "lat" : -37.85657663274344,
    "lng" : 145.0290808288682,
    "name" : "Stop 44: Glenferrie Road",
    "type" : "tram",
}
{
    "lat" : -37.85666606765031,
    "lng" : 145.02954468338982,
    "name" : "Stop 44: Glenferrie Road",
    "type" : "tram",
}
{
    "lat" : -37.85403398241576,
    "lng" : 145.02966454460517,
    "name" : "Stop 58: Bell Street",
    "type" : "tram",
}
{
    "lat" : -37.85407312590357,
    "lng" : 145.02969522237078,
    "name" : "Stop 58: Sorrett Avenue",
    "type" : "tram",
}
{
    "lat" : -37.85651117007964,
    "lng" : 145.02932792737374,
    "name" : "Stop 57: High Street",
    "type" : "tram",
}
{
    "lat" : -37.857110308518486,
    "lng" : 145.03294899336373,
    "name" : "Stop 45: De La Salle College",
    "type" : "tram",
}
{
    "lat" : -37.85701224025135,
    "lng" : 145.03241841889286,
    "name" : "Stop 45: De La Salle College",
    "type" : "tram",
}
{
    "lat" : -37.85616650622114,
    "lng" : 145.0259285627227,
    "name" : "Stop 43: Mercer Road",
    "type" : "tram",
}
{
    "lat" : -37.85623180124688,
    "lng" : 145.02620667427,
    "name" : "Stop 43: Mercer Road",
    "type" : "tram",
}
{
    "lat" : -37.855924101581365,
    "lng" : 145.02385094038306,
    "name" : "Stop 42: Huntingtower Road",
    "type" : "tram",
}
{
    "lat" : -37.8558739778004,
    "lng" : 145.02368816382346,
    "name" : "Stop 42: Huntingtower Road",
    "type" : "tram",
}
{
    "lat" : -37.85515774417422,
    "lng" : 145.01824327952193,
    "name" : "Stop 40: Armadale Station",
    "type" : "tram",
}
{
    "lat" : -37.85552730228514,
    "lng" : 145.0208117461114,
    "name" : "Stop 41: Kooyong Road",
    "type" : "tram",
}
{
    "lat" : -37.855466533487146,
    "lng" : 145.02057068257614,
    "name" : "Stop 41: Kooyong Road",
    "type" : "tram",
}
{
    "lat" : -37.85521432202066,
    "lng" : 145.0184513183587,
    "name" : "Stop 40: Armadale Station",
    "type" : "tram",
}
{
    "lat" : -37.882479060482495,
    "lng" : 145.0228473751161,
    "name" : "Stop 55: Sylverly Grove",
    "type" : "tram",
}
{
    "lat" : -37.87515386384206,
    "lng" : 145.024220498494,
    "name" : "Stop 52: Powderham Road",
    "type" : "tram",
}
{
    "lat" : -37.8771713041169,
    "lng" : 145.02386845856068,
    "name" : "Stop 53: Northcote Avenue",
    "type" : "tram",
}
{
    "lat" : -37.87492470260929,
    "lng" : 145.02430062948832,
    "name" : "Stop 52: Halstead Street",
    "type" : "tram",
}
{
    "lat" : -37.877455115358345,
    "lng" : 145.02377776636837,
    "name" : "Stop 53: Crotonhurst Avenue",
    "type" : "tram",
}
{
    "lat" : -37.882741162594726,
    "lng" : 145.02276087387537,
    "name" : "Stop 55: Sylverly Grove",
    "type" : "tram",
}
{
    "lat" : -37.880147717933795,
    "lng" : 145.02325976475225,
    "name" : "Stop 54: Glen Eira Road",
    "type" : "tram",
}
{
    "lat" : -37.87991654504427,
    "lng" : 145.02334039866076,
    "name" : "Stop 54: Glen Eira Road",
    "type" : "tram",
}
{
    "lat" : -37.86342925768295,
    "lng" : 145.01923326610574,
    "name" : "Dandenong Road",
    "type" : "bus",
}
{
    "lat" : -37.86344803314606,
    "lng" : 145.01932479648838,
    "name" : "Dandenong Road",
    "type" : "bus",
}
{
    "lat" : -37.8621481676019,
    "lng" : 145.01965839623472,
    "name" : "Dandenong Road",
    "type" : "bus",
}
{
    "lat" : -37.87262462455945,
    "lng" : 145.02444463058487,
    "name" : "Hawthorn Road",
    "type" : "bus",
}
{
    "lat" : -37.872685058081316,
    "lng" : 145.02495039462235,
    "name" : "Hawthorn Road",
    "type" : "bus",
}
{
    "lat" : -37.87992786061355,
    "lng" : 145.0231416637365,
    "name" : "Hawthorn Road",
    "type" : "bus",
}
{
    "lat" : -37.88004981730472,
    "lng" : 145.02345388962976,
    "name" : "Hawthorn Road",
    "type" : "bus",
}
{
    "lat" : -37.88010723334148,
    "lng" : 145.02344374752693,
    "name" : "Hawthorn Road",
    "type" : "bus",
}
{
    "lat" : -37.880009332712405,
    "lng" : 145.02312489993017,
    "name" : "Hawthorn Road",
    "type" : "bus",
}
{
    "lat" : -37.86117896813795,
    "lng" : 145.01957792996427,
    "name" : "Stop 42: Kooyong Road",
    "type" : "tram",
}
{
    "lat" : -37.86188992116513,
    "lng" : 145.01768102145707,
    "name" : "Stop 41: Cantala Avenue",
    "type" : "tram",
}
{
    "lat" : -37.86198203828101,
    "lng" : 145.01767297483002,
    "name" : "Stop 41: Cantala Avenue",
    "type" : "tram",
}
{
    "lat" : -37.860928181595,
    "lng" : 145.0177614877275,
    "name" : "Stop 41: Armadale Street",
    "type" : "tram",
}
{
    "lat" : -37.861341074145315,
    "lng" : 145.01984807870355,
    "name" : "Stop 42: Kooyong Road",
    "type" : "tram",
}
{
    "lat" : -37.86257606375892,
    "lng" : 145.01918792000959,
    "name" : "Stop 42: Kooyong Road",
    "type" : "tram",
}
{
    "lat" : -37.86249568130748,
    "lng" : 145.01891073047165,
    "name" : "Stop 42: Kooyong Road",
    "type" : "tram",
}
{
    "lat" : -37.86466676186748,
    "lng" : 145.0240506811357,
    "name" : "Stop 44: Bailey Avenue",
    "type" : "tram",
}
{
    "lat" : -37.8618864007658,
    "lng" : 145.0251411667386,
    "name" : "Stop 44: Duncraig Avenue",
    "type" : "tram",
}
{
    "lat" : -37.86377425681758,
    "lng" : 145.02198152451825,
    "name" : "Stop 43: Egerton Road",
    "type" : "tram",
}
{
    "lat" : -37.86157274994903,
    "lng" : 145.02268518528967,
    "name" : "Stop 43: Egerton Road",
    "type" : "tram",
}
{
    "lat" : -37.863859165496706,
    "lng" : 145.0219562949897,
    "name" : "Stop 43: Matlock Court",
    "type" : "tram",
}
{
    "lat" : -37.86464178379603,
    "lng" : 145.02373007333932,
    "name" : "Stop 44: Bailey Avenue",
    "type" : "tram",
}
{
    "lat" : -37.86171331446525,
    "lng" : 145.02271569541728,
    "name" : "Stop 43: Egerton Road",
    "type" : "tram",
}
{
    "lat" : -37.86226945374082,
    "lng" : 145.02820039375882,
    "name" : "Stop 45: Glenferrie Road",
    "type" : "tram",
}
{
    "lat" : -37.86206644404595,
    "lng" : 145.02548465713062,
    "name" : "Stop 44: Duncraig Avenue",
    "type" : "tram",
}
{
    "lat" : -37.862443126774565,
    "lng" : 145.02853256858162,
    "name" : "Stop 45: Glenferrie Road",
    "type" : "tram",
}
{
    "lat" : -37.862975629083195,
    "lng" : 145.03351116760956,
    "name" : "Stop 47: Cabrini Hospital",
    "type" : "tram",
}
{
    "lat" : -37.86281050559069,
    "lng" : 145.03133237569864,
    "name" : "Stop 46: Soudan Street",
    "type" : "tram",
}
{
    "lat" : -37.86264110732753,
    "lng" : 145.03101864106287,
    "name" : "Stop 46: Nicholls Street",
    "type" : "tram",
}
{
    "lat" : -37.86313865709991,
    "lng" : 145.03384032494722,
    "name" : "Stop 47: Cabrini Hospital",
    "type" : "tram",
}
{
    "lat" : -37.86544602740551,
    "lng" : 145.0257609246592,
    "name" : "Stop 48: Hawthorn Road",
    "type" : "tram",
}
{
    "lat" : -37.8653414212539,
    "lng" : 145.02543025857904,
    "name" : "Stop 48: Hawthorn Road",
    "type" : "tram",
}
{
    "lat" : -37.86586755331612,
    "lng" : 145.02672593317158,
    "name" : "Stop 48: Hawthorn Road",
    "type" : "tram",
}
{
    "lat" : -37.865980625189934,
    "lng" : 145.0258859826546,
    "name" : "Stop 48A: Dandenong Road",
    "type" : "tram",
}
{
    "lat" : -37.86579815115783,
    "lng" : 145.0264784993899,
    "name" : "Stop 48: Hawthorn Road",
    "type" : "tram",
}
{
    "lat" : -37.86598615724603,
    "lng" : 145.02595806702186,
    "name" : "Stop 48A: Dandenong Road",
    "type" : "tram",
}
{
    "lat" : -37.86769413765569,
    "lng" : 145.02575019582315,
    "name" : "Stop 49: Arthur Street",
    "type" : "tram",
}
{
    "lat" : -37.86797082427944,
    "lng" : 145.02552497408487,
    "name" : "Stop 49: Wanda Road",
    "type" : "tram",
}
{
    "lat" : -37.872420944312324,
    "lng" : 145.02483346707305,
    "name" : "Stop 51: Balaclava Road",
    "type" : "tram",
}
{
    "lat" : -37.86970068145641,
    "lng" : 145.0251842497209,
    "name" : "Stop 50: Inkerman Road",
    "type" : "tram",
}
{
    "lat" : -37.872741216832594,
    "lng" : 145.024944192014,
    "name" : "Stop 51: Hawthorn Road",
    "train" : "",
    "tram" : "1",
    "bus" : "1",
}
{
    "lat" : -37.87255220491602,
    "lng" : 145.02444957590774,
    "name" : "Stop 51: Hawthorn Road",
    "train" : "",
    "tram" : "1",
    "bus" : "1",
}
{
    "lat" : -37.869512340092086,
    "lng" : 145.02538264936902,
    "name" : "Stop 50: Inkerman Road",
    "type" : "tram",
}
{
    "lat" : -37.87283886600457,
    "lng" : 145.0245977679558,
    "name" : "Stop 51: Balaclava Road",
    "type" : "tram",
}
{
    "lat" : -37.87493350360762,
    "lng" : 145.0243639966763,
    "name" : "Stop 52: Halstead Street",
    "type" : "tram",
}
{
    "lat" : -37.87745084058773,
    "lng" : 145.02371322571395,
    "name" : "Stop 53: Crotonhurst Avenue",
    "type" : "tram",
}
{
    "lat" : -37.8751500081666,
    "lng" : 145.02415939441988,
    "name" : "Stop 52: Powderham Road",
    "type" : "tram",
}
{
    "lat" : -37.87717775818234,
    "lng" : 145.023937860719,
    "name" : "Stop 53: Northcote Avenue",
    "type" : "tram",
}
{
    "lat" : -37.87992341820487,
    "lng" : 145.02341097428547,
    "name" : "Stop 54: Glen Eira Road",
    "type" : "tram",
}
{
    "lat" : -37.86217146929272,
    "lng" : 145.02846283114718,
    "name" : "Stop 54: Wattletree Road",
    "type" : "tram",
}
{
    "lat" : -37.88014830466702,
    "lng" : 145.02318877003233,
    "name" : "Stop 54: Glen Eira Road",
    "type" : "tram",
}
{
    "lat" : -37.86124275442111,
    "lng" : 145.02846065185236,
    "name" : "Stop 55: Llaneast Street",
    "type" : "tram",
}
{
    "lat" : -37.88248333525311,
    "lng" : 145.02290194130575,
    "name" : "Stop 55: Sylverly Grove",
    "type" : "tram",
}
{
    "lat" : -37.85887478295555,
    "lng" : 145.0289870353717,
    "name" : "Stop 56: Malvern Tram Depot",
    "type" : "tram",
}
{
    "lat" : -37.862471541426345,
    "lng" : 145.02824825442593,
    "name" : "Stop 54: Wattletree Road",
    "type" : "tram",
}
{
    "lat" : -37.859016604757244,
    "lng" : 145.02882392353592,
    "name" : "Stop 56: Malvern Tram Depot",
    "type" : "tram",
}
{
    "lat" : -37.86110923070353,
    "lng" : 145.02861244811885,
    "name" : "Stop 55: Edsall Street",
    "type" : "tram",
}
{
    "lat" : -37.88273403797703,
    "lng" : 145.0226931480977,
    "name" : "Stop 55: Sylverly Grove",
    "type" : "tram",
}
{
    "lat" : -37.8610747810815,
    "lng" : 145.01982611811724,
    "name" : "Wattletree Road",
    "type" : "bus",
}
{
    "lat" : -37.861069751939596,
    "lng" : 145.01976032017728,
    "name" : "Wattletree Road",
    "type" : "bus",
}
{
    "lat" : -37.86148096810928,
    "lng" : 145.0195951966848,
    "name" : "Wattletree Road",
    "type" : "bus",
}
{
    "lat" : -37.861494211516316,
    "lng" : 145.0196876490768,
    "name" : "Wattletree Road",
    "type" : "bus",
}
{
    "lat" : -37.871585436203986,
    "lng" : 145.0178108571372,
    "name" : "Balaclava Road",
    "type" : "bus",
}
{
    "lat" : -37.87159918252519,
    "lng" : 145.01791202670853,
    "name" : "Balaclava Road",
    "type" : "bus",
}
{
    "lat" : -37.87201601457002,
    "lng" : 145.01764875112985,
    "name" : "Balaclava Road",
    "type" : "bus",
}
{
    "lat" : -37.872023474463845,
    "lng" : 145.0177276248387,
    "name" : "Balaclava Road",
    "type" : "bus",
}
{
    "lat" : -37.873151427173894,
    "lng" : 145.02813233270507,
    "name" : "Stop 52: Caulfield Park Bowling Club",
    "type" : "tram",
}
{
    "lat" : -37.87339726839397,
    "lng" : 145.03131435460682,
    "name" : "Stop 53: Caulfield Park",
    "type" : "tram",
}
{
    "lat" : -37.87361385677198,
    "lng" : 145.03194953522933,
    "name" : "Stop 53: Caulfield Park",
    "type" : "tram",
}
{
    "lat" : -37.8718894478321,
    "lng" : 145.01794639251153,
    "name" : "Stop 46: Kooyong Road",
    "type" : "tram",
}
{
    "lat" : -37.871720803940235,
    "lng" : 145.01758018716185,
    "name" : "Stop 46: Kooyong Road",
    "type" : "tram",
}
{
    "lat" : -37.872142329850845,
    "lng" : 145.02107845827038,
    "name" : "Stop 47: Caulfield Junior College, Sebastopol Street",
    "type" : "tram",
}
{
    "lat" : -37.87229270119377,
    "lng" : 145.02120519264633,
    "name" : "Stop 47: Elmhurst Road",
    "type" : "tram",
}
{
    "lat" : -37.87305671166803,
    "lng" : 145.02847984641062,
    "name" : "Stop 52: Caulfield Park Bowling Club",
    "type" : "tram",
}
{
    "lat" : -37.86627382416293,
    "lng" : 145.0295012651314,
    "name" : "Malvern",
    "type" : "train",
}
{
    "lat" : -37.86629125852153,
    "lng" : 145.02947922072605,
    "name" : "Malvern",
    "type" : "train",
}
{
    "lat" : -37.866403576024055,
    "lng" : 145.02933697982917,
    "name" : "Malvern",
    "type" : "train",
}
{
    "lat" : -37.86642394404876,
    "lng" : 145.0293098224629,
    "name" : "Malvern",
    "type" : "train",
}
{
    "lat" : -37.856517707964116,
    "lng" : 145.02902944780175,
    "name" : "Stop 44: Glenferrie Road",
    "type" : "tram",
}
{
    "lat" : -37.856709821184864,
    "lng" : 145.02956178247229,
    "name" : "Stop 44: Glenferrie Road",
    "type" : "tram",
}
{
    "lat" : -37.86418974775788,
    "lng" : 145.02812252587836,
    "name" : "Stop 53: Malvern Station",
    "type" : "tram",
}
{
    "lat" : -37.865253578908664,
    "lng" : 145.02777568272506,
    "name" : "Stop 53: Malvern Station",
    "type" : "tram",
}
{
    "lat" : -37.85681140985133,
    "lng" : 145.02918032205883,
    "name" : "Stop 57: High Street",
    "type" : "tram",
}
{
    "lat" : -37.8565168697738,
    "lng" : 145.02944108306656,
    "name" : "Stop 57: High Street",
    "type" : "tram",
}
{
    "lat" : -37.85407522137936,
    "lng" : 145.0297675581952,
    "name" : "Stop 58: Sorrett Avenue",
    "type" : "tram",
}
{
    "lat" : -37.85402576815065,
    "lng" : 145.02959388516143,
    "name" : "Stop 58: Bell Street",
    "type" : "tram",
}
{
    "lat" : -37.85615552592799,
    "lng" : 145.01931758805165,
    "name" : "Armadale",
    "type" : "train",
}
{
    "lat" : -37.85617731887626,
    "lng" : 145.0192833898867,
    "name" : "Armadale",
    "type" : "train",
}
{
    "lat" : -37.856297180091644,
    "lng" : 145.01909236631343,
    "name" : "Armadale",
    "type" : "train",
}
{
    "lat" : -37.855317335610636,
    "lng" : 145.020728932908,
    "name" : "High Street",
    "type" : "bus",
}
{
    "lat" : -37.85578001666582,
    "lng" : 145.0205605404733,
    "name" : "High Street",
    "type" : "bus",
}
{
    "lat" : -37.85578848238802,
    "lng" : 145.02065274140818,
    "name" : "High Street",
    "type" : "bus",
}
{
    "lat" : -37.85532186183835,
    "lng" : 145.02081845163394,
    "name" : "High Street",
    "type" : "bus",
}
{
    "lat" : -37.855092449148515,
    "lng" : 145.01824579409288,
    "name" : "Stop 40: Armadale Station",
    "type" : "tram",
}
{
    "lat" : -37.855257656460054,
    "lng" : 145.01844427756004,
    "name" : "Stop 40: Armadale Station",
    "type" : "tram",
}
{
    "lat" : -37.85557432476196,
    "lng" : 145.02081979273845,
    "name" : "Stop 41: Kooyong Road",
    "type" : "tram",
}
{
    "lat" : -37.855398556252396,
    "lng" : 145.02057235895677,
    "name" : "Stop 41: Kooyong Road",
    "type" : "tram",
}
{
    "lat" : -37.85581974688688,
    "lng" : 145.02369545607922,
    "name" : "Stop 42: Huntingtower Road",
    "type" : "tram",
}
{
    "lat" : -37.855963245069205,
    "lng" : 145.02384423486052,
    "name" : "Stop 42: Huntingtower Road",
    "type" : "tram",
}
{
    "lat" : -37.85611780736372,
    "lng" : 145.025937279902,
    "name" : "Stop 43: Mercer Road",
    "type" : "tram",
}
{
    "lat" : -37.856952812557864,
    "lng" : 145.03242688461506,
    "name" : "Stop 45: De La Salle College",
    "type" : "tram",
}
{
    "lat" : -37.85716982003103,
    "lng" : 145.03294186874604,
    "name" : "Stop 45: De La Salle College",
    "type" : "tram",
}
{
    "lat" : -37.85628670271265,
    "lng" : 145.02620214804227,
    "name" : "Stop 43: Mercer Road",
    "type" : "tram",
}
{
    "lat" : -37.79291146809385,
    "lng" : 145.0680800641349,
    "name" : "Corhampton Road",
    "type" : "bus",
}
{
    "lat" : -37.792878611033416,
    "lng" : 145.06725939199515,
    "name" : "Wattle Avenue",
    "type" : "bus",
}
{
    "lat" : -37.7933809384906,
    "lng" : 145.06327765271163,
    "name" : "Burke Road",
    "type" : "bus",
}
{
    "lat" : -37.80129881950444,
    "lng" : 145.04598126023694,
    "name" : "Stop 38: Victoria Park",
    "type" : "tram",
}
{
    "lat" : -37.80127208123329,
    "lng" : 145.04615602291813,
    "name" : "Stop 38: Victoria Park",
    "type" : "tram",
}
{
    "lat" : -37.79944482634147,
    "lng" : 145.05039743356195,
    "name" : "Stop 39: Harp Road",
    "type" : "tram",
}
{
    "lat" : -37.797491256168826,
    "lng" : 145.05478812590133,
    "name" : "Stop 41: Clyde Street",
    "type" : "tram",
}
{
    "lat" : -37.79866380060378,
    "lng" : 145.05219359159304,
    "name" : "Stop 40: Harp Village",
    "type" : "tram",
}
{
    "lat" : -37.79358042778614,
    "lng" : 145.06368316918713,
    "name" : "Stop 44: Burke Road",
    "type" : "tram",
}
{
    "lat" : -37.797934239751555,
    "lng" : 145.05386041685813,
    "name" : "Stop 41: Station Street",
    "type" : "tram",
}
{
    "lat" : -37.79869816640678,
    "lng" : 145.05203089885242,
    "name" : "Stop 40: Harp Village",
    "type" : "tram",
}
{
    "lat" : -37.79630856963104,
    "lng" : 145.05757795855362,
    "name" : "Stop 42: Woodlands Avenue",
    "type" : "tram",
}
{
    "lat" : -37.796440416967954,
    "lng" : 145.0571915528173,
    "name" : "Stop 42: Irymple Avenue",
    "type" : "tram",
}
{
    "lat" : -37.79470351899235,
    "lng" : 145.061139261574,
    "name" : "Stop 43: Kew High School",
    "type" : "tram",
}
{
    "lat" : -37.794661777114555,
    "lng" : 145.0613177961116,
    "name" : "Stop 43: Kew High School",
    "type" : "tram",
}
{
    "lat" : -37.79340885022816,
    "lng" : 145.06419932678455,
    "name" : "Stop 44: Burke Road",
    "type" : "tram",
}
{
    "lat" : -37.79320734927586,
    "lng" : 145.06540665611766,
    "name" : "Stop 45: Burke Road",
    "type" : "tram",
}
{
    "lat" : -37.79314515555433,
    "lng" : 145.06544512905327,
    "name" : "Burke Road",
    "type" : "bus",
}
{
    "lat" : -37.79291297683642,
    "lng" : 145.06746625736548,
    "name" : "Stop 46: Wattle Avenue",
    "type" : "tram",
}
{
    "lat" : -37.792961675693846,
    "lng" : 145.06734254047467,
    "name" : "Stop 46: Wattle Avenue",
    "type" : "tram",
}
{
    "lat" : -37.7926554009519,
    "lng" : 145.07065749936072,
    "name" : "Stop 47: North Balwyn Shopping Centre",
    "type" : "tram",
}
{
    "lat" : -37.79275497796161,
    "lng" : 145.07139577739224,
    "name" : "Stop 47: North Balwyn Shopping Centre",
    "type" : "tram",
}
{
    "lat" : -37.793264346217455,
    "lng" : 145.07423212960714,
    "name" : "Stop 48: Sunburst Avenue",
    "type" : "tram",
}
{
    "lat" : -37.79337347859678,
    "lng" : 145.0746632947064,
    "name" : "Stop 48: Osburn Avenue",
    "type" : "tram",
}
{
    "lat" : -37.79917434232607,
    "lng" : 145.04937819413607,
    "name" : "East Kew Junction",
    "type" : "bus",
}
{
    "lat" : -37.79944541307469,
    "lng" : 145.05026734642473,
    "name" : "Harp Junction",
    "type" : "bus",
}
{
    "lat" : -37.79967180827941,
    "lng" : 145.05007271863303,
    "name" : "Harp Road",
    "type" : "bus",
}
{
    "lat" : -37.79972243497457,
    "lng" : 145.05009367339096,
    "name" : "Harp Road",
    "type" : "bus",
}
{
    "lat" : -37.79907367566895,
    "lng" : 145.050011866016,
    "name" : "High Street",
    "type" : "bus",
}
{
    "lat" : -37.79921675475612,
    "lng" : 145.04935195877914,
    "name" : "East Kew Junction",
    "type" : "bus",
}
{
    "lat" : -37.79937542418321,
    "lng" : 145.0502055717983,
    "name" : "Harp Junction",
    "type" : "bus",
}
{
    "lat" : -37.801246264971525,
    "lng" : 145.04595167211875,
    "name" : "Stop 38: Victoria Park",
    "type" : "tram",
}
{
    "lat" : -37.801334274954854,
    "lng" : 145.04620916418423,
    "name" : "Stop 38: Victoria Park",
    "type" : "tram",
}
{
    "lat" : -37.79943451660057,
    "lng" : 145.0503832681456,
    "name" : "Stop 39: Harp Road",
    "type" : "tram",
}
{
    "lat" : -37.799558904043664,
    "lng" : 145.05023985378233,
    "name" : "Stop 39: Harp Road",
    "type" : "tram",
}
{
    "lat" : -37.79916378112807,
    "lng" : 145.0499554558076,
    "name" : "High Street",
    "type" : "bus",
}
{
    "lat" : -37.799569632879724,
    "lng" : 145.05024857096163,
    "name" : "Stop 39: Harp Road",
    "type" : "tram",
}
{
    "lat" : -37.7979853693609,
    "lng" : 145.05389293864243,
    "name" : "Stop 41: Station Street",
    "type" : "tram",
}
{
    "lat" : -37.79864980282548,
    "lng" : 145.05199125245042,
    "name" : "Stop 40: Harp Village",
    "type" : "tram",
}
{
    "lat" : -37.79870596157673,
    "lng" : 145.05222066514028,
    "name" : "Stop 40: Harp Village",
    "type" : "tram",
}
{
    "lat" : -37.79744490424429,
    "lng" : 145.05474856331836,
    "name" : "Stop 41: Clyde Street",
    "type" : "tram",
}
{
    "lat" : -37.79258532824136,
    "lng" : 145.0708232934055,
    "name" : "Bulleen Road",
    "type" : "bus",
}
{
    "lat" : -37.79266512395958,
    "lng" : 145.07080627814207,
    "name" : "Bulleen Road",
    "type" : "bus",
}
{
    "lat" : -37.79284307176394,
    "lng" : 145.06806438997597,
    "name" : "Corhampton Road",
    "type" : "bus",
}
{
    "lat" : -37.793215479721965,
    "lng" : 145.0654589591935,
    "name" : "Burke Road",
    "type" : "bus",
}
{
    "lat" : -37.79336082192299,
    "lng" : 145.06328209512031,
    "name" : "Burke Road",
    "type" : "bus",
}
{
    "lat" : -37.79292907009051,
    "lng" : 145.0722751228542,
    "name" : "Macedon Avenue",
    "type" : "bus",
}
{
    "lat" : -37.79293317722306,
    "lng" : 145.07229808926888,
    "name" : "Marwal Avenue",
    "type" : "bus",
}
{
    "lat" : -37.7929605022274,
    "lng" : 145.06395139008868,
    "name" : "Kilby Road",
    "type" : "bus",
}
{
    "lat" : -37.7929657828264,
    "lng" : 145.06401785858088,
    "name" : "Kilby Road",
    "type" : "bus",
}
{
    "lat" : -37.793003249933605,
    "lng" : 145.07228082254835,
    "name" : "Marwal Avenue",
    "type" : "bus",
}
{
    "lat" : -37.79285597989485,
    "lng" : 145.0722888691754,
    "name" : "Macedon Avenue",
    "type" : "bus",
}
{
    "lat" : -37.796358861050095,
    "lng" : 145.05761131852825,
    "name" : "Stop 42: Woodlands Avenue",
    "type" : "tram",
}
{
    "lat" : -37.7926382180504,
    "lng" : 145.0706566611704,
    "name" : "North Balwyn Shopping Centre",
    "type" : "bus",
}
{
    "lat" : -37.793159237151656,
    "lng" : 145.0653903952255,
    "name" : "Stop 45: Burke Road",
    "type" : "tram",
}
{
    "lat" : -37.7928571533613,
    "lng" : 145.06745033174946,
    "name" : "Stop 46: Wattle Avenue",
    "type" : "tram",
}
{
    "lat" : -37.79639590906211,
    "lng" : 145.05716204851814,
    "name" : "Stop 42: Irymple Avenue",
    "type" : "tram",
}
{
    "lat" : -37.79465850817232,
    "lng" : 145.061104895771,
    "name" : "Stop 43: Kew High School",
    "type" : "tram",
}
{
    "lat" : -37.79470192643075,
    "lng" : 145.06135031789591,
    "name" : "Stop 43: Kew High School",
    "type" : "tram",
}
{
    "lat" : -37.793457046171426,
    "lng" : 145.0642075410497,
    "name" : "Stop 44: Burke Road",
    "type" : "tram",
}
{
    "lat" : -37.79269135931651,
    "lng" : 145.07140524894282,
    "name" : "Stop 47: North Balwyn Shopping Centre",
    "type" : "tram",
}
{
    "lat" : -37.79354120047927,
    "lng" : 145.06365701764923,
    "name" : "Stop 44: Burke Road",
    "type" : "tram",
}
{
    "lat" : -37.7930087819897,
    "lng" : 145.0673497489114,
    "name" : "Stop 46: Wattle Avenue",
    "type" : "tram",
}
{
    "lat" : -37.7932019010388,
    "lng" : 145.07423615292066,
    "name" : "Stop 48: Sunburst Avenue",
    "type" : "tram",
}
{
    "lat" : -37.792955221628404,
    "lng" : 145.06727942474373,
    "name" : "Wattle Avenue",
    "type" : "bus",
}
{
    "lat" : -37.79271675648312,
    "lng" : 145.07064358540146,
    "name" : "Stop 47: North Balwyn Shopping Centre",
    "train" : "",
    "tram" : "1",
    "bus" : "1",
}
{
    "lat" : -37.79343827070829,
    "lng" : 145.0746545775271,
    "name" : "Stop 48: Osburn Avenue",
    "type" : "tram",
}
{
    "lat" : -37.83471252213437,
    "lng" : 145.02279431766902,
    "name" : "Heyington",
    "type" : "train",
}
{
    "lat" : -37.80714360440635,
    "lng" : 145.02788087560987,
    "name" : "Kew Junction",
    "type" : "bus",
}
{
    "lat" : -37.807429427304555,
    "lng" : 145.02914629153196,
    "name" : "Stop 32: Kew Junction",
    "type" : "tram",
}
{
    "lat" : -37.80723153057065,
    "lng" : 145.02886256410955,
    "name" : "Kew Junction",
    "type" : "bus",
}
{
    "lat" : -37.81308235044284,
    "lng" : 145.02322799733923,
    "name" : "Stop 29: High Street",
    "type" : "tram",
}
{
    "lat" : -37.812966680179045,
    "lng" : 145.02369243859408,
    "name" : "Stop 29: Barkers Road",
    "type" : "tram",
}
{
    "lat" : -37.81326080116142,
    "lng" : 145.02335774920033,
    "name" : "Stop 26: Barkers Road",
    "type" : "tram",
}
{
    "lat" : -37.812816057379024,
    "lng" : 145.02078701949705,
    "name" : "Stop 27: Findon Street",
    "type" : "tram",
}
{
    "lat" : -37.81276341902711,
    "lng" : 145.02060479692204,
    "name" : "Stop 27: Findon Crescent",
    "type" : "tram",
}
{
    "lat" : -37.81024323219992,
    "lng" : 145.0261477494907,
    "name" : "Stop 31: Stevenson Street",
    "type" : "tram",
}
{
    "lat" : -37.80999521168502,
    "lng" : 145.02645754463197,
    "name" : "Stop 31: Stevenson Street",
    "type" : "tram",
}
{
    "lat" : -37.807649033167706,
    "lng" : 145.0286387672948,
    "name" : "Stop 32: Kew Junction",
    "type" : "tram",
}
{
    "lat" : -37.80740830490856,
    "lng" : 145.02914528570358,
    "name" : "Stop 32: Kew Junction",
    "type" : "tram",
}
{
    "lat" : -37.815803535308135,
    "lng" : 145.02085918768336,
    "name" : "Stop 25: Brook Street",
    "type" : "tram",
}
{
    "lat" : -37.81795751678567,
    "lng" : 145.01864711961684,
    "name" : "Stop 24: Grattan Street",
    "type" : "tram",
}
{
    "lat" : -37.81796941908817,
    "lng" : 145.0186855925524,
    "name" : "Stop 24: Hill Street",
    "type" : "tram",
}
{
    "lat" : -37.81596765297226,
    "lng" : 145.02064293458147,
    "name" : "Stop 25: Brook Street",
    "type" : "tram",
}
{
    "lat" : -37.80766495878373,
    "lng" : 145.03793538756167,
    "name" : "Stop 36: Glenferrie Road",
    "type" : "tram",
}
{
    "lat" : -37.80692961441832,
    "lng" : 145.03157486415745,
    "name" : "Stop 34: QPO",
    "type" : "tram",
}
{
    "lat" : -37.806904301070745,
    "lng" : 145.03046602218666,
    "name" : "Stop 33: Kew Shopping Centre",
    "type" : "tram",
}
{
    "lat" : -37.806935565569574,
    "lng" : 145.03134503237243,
    "name" : "Stop 34: QPO",
    "type" : "tram",
}
{
    "lat" : -37.80742423052459,
    "lng" : 145.03557244523802,
    "name" : "Stop 35: Charles Street",
    "type" : "tram",
}
{
    "lat" : -37.80735650474696,
    "lng" : 145.0352680983338,
    "name" : "Stop 35: Charles Street",
    "type" : "tram",
}
{
    "lat" : -37.8066342361505,
    "lng" : 145.03125895022686,
    "name" : "Stop 33: Cotham Road",
    "type" : "tram",
}
{
    "lat" : -37.80561214687751,
    "lng" : 145.03399614452718,
    "name" : "Stop 34: Pakington Street",
    "type" : "tram",
}
{
    "lat" : -37.80558524096833,
    "lng" : 145.03416897937063,
    "name" : "Stop 34: Union Street",
    "type" : "tram",
}
{
    "lat" : -37.809855233902,
    "lng" : 145.03775936759502,
    "name" : "Stop 79: Wellington Street",
    "type" : "tram",
}
{
    "lat" : -37.808250853815565,
    "lng" : 145.0380530694822,
    "name" : "Stop 80: Cotham Road",
    "type" : "tram",
}
{
    "lat" : -37.808238700055966,
    "lng" : 145.04275162912518,
    "name" : "Stop 37: Belmont Avenue",
    "type" : "tram",
}
{
    "lat" : -37.8081527017294,
    "lng" : 145.04229095972676,
    "name" : "Stop 37: Belmont Avenue",
    "type" : "tram",
}
{
    "lat" : -37.807741401740685,
    "lng" : 145.03832129038375,
    "name" : "Stop 36: Glenferrie Road",
    "type" : "tram",
}
{
    "lat" : -37.803519353293154,
    "lng" : 145.03980832382575,
    "name" : "Stop 36: Parkhill Road",
    "type" : "tram",
}
{
    "lat" : -37.80491602981897,
    "lng" : 145.03602565474262,
    "name" : "Stop 35: Charles Street",
    "type" : "tram",
}
{
    "lat" : -37.80506564679061,
    "lng" : 145.03551234699228,
    "name" : "Stop 35: Cobden Street",
    "type" : "tram",
}
{
    "lat" : -37.80350887591419,
    "lng" : 145.03993706985852,
    "name" : "Stop 36: Gladstone Street",
    "type" : "tram",
}
{
    "lat" : -37.80251914078747,
    "lng" : 145.0425885172894,
    "name" : "Stop 37: Kew Cemetery",
    "type" : "tram",
}
{
    "lat" : -37.802605055294976,
    "lng" : 145.04244904242057,
    "name" : "Stop 37: Kew Cemetery",
    "type" : "tram",
}
{
    "lat" : -37.826432123808274,
    "lng" : 145.02070395483656,
    "name" : "Stop 18: Yarra Boulevard",
    "type" : "tram",
}
{
    "lat" : -37.82664401832051,
    "lng" : 145.019540379038,
    "name" : "Stop 18: Yarra Boulevard",
    "type" : "tram",
}
{
    "lat" : -37.82742412204885,
    "lng" : 145.01648961773998,
    "name" : "Stop 17: Madden Grove",
    "type" : "tram",
}
{
    "lat" : -37.8272958789303,
    "lng" : 145.01688205844653,
    "name" : "Stop 17: Madden Grove",
    "type" : "tram",
}
{
    "lat" : -37.8217453826488,
    "lng" : 145.02633257045568,
    "name" : "Stop 27: Burwood Road",
    "type" : "tram",
}
{
    "lat" : -37.82151697578732,
    "lng" : 145.0261667764109,
    "name" : "Stop 27: Power Street",
    "type" : "tram",
}
{
    "lat" : -37.820885064107074,
    "lng" : 145.02107066310043,
    "name" : "Stop 25: St James Park",
    "type" : "tram",
}
{
    "lat" : -37.82092697362293,
    "lng" : 145.0211324377268,
    "name" : "Stop 25: St James Park",
    "type" : "tram",
}
{
    "lat" : -37.82139141487778,
    "lng" : 145.02481125502965,
    "name" : "Stop 26: Hawthorn Station",
    "type" : "tram",
}
{
    "lat" : -37.82134414094389,
    "lng" : 145.02467521674117,
    "name" : "Stop 26: Hawthorn Station",
    "type" : "tram",
}
{
    "lat" : -37.82481391358161,
    "lng" : 145.0258153232108,
    "name" : "Stop 28: Wattle Road",
    "type" : "tram",
}
{
    "lat" : -37.82491483169579,
    "lng" : 145.02575715280278,
    "name" : "Stop 28: Wattle Road",
    "type" : "tram",
}
{
    "lat" : -37.82869230399902,
    "lng" : 145.03399262412785,
    "name" : "Stop 32: Glenferrie Road",
    "type" : "tram",
}
{
    "lat" : -37.82813675145667,
    "lng" : 145.02909264735166,
    "name" : "Stop 30: Through Street",
    "type" : "tram",
}
{
    "lat" : -37.82816357354682,
    "lng" : 145.0290924797136,
    "name" : "Stop 30: Through Street",
    "type" : "tram",
}
{
    "lat" : -37.828445708407656,
    "lng" : 145.0315810667658,
    "name" : "Stop 31: Fordholm Road",
    "type" : "tram",
}
{
    "lat" : -37.82840036231147,
    "lng" : 145.03141753583492,
    "name" : "Stop 31: Fordholm Road",
    "type" : "tram",
}
{
    "lat" : -37.82273746470841,
    "lng" : 145.0353090858403,
    "name" : "Stop 73: Burwood Road",
    "type" : "tram",
}
{
    "lat" : -37.82981103661558,
    "lng" : 145.0435047431253,
    "name" : "Stop 36: Auburn Road",
    "type" : "tram",
}
{
    "lat" : -37.82890394705413,
    "lng" : 145.0341720806748,
    "name" : "Stop 70: Riversdale Road",
    "type" : "tram",
}
{
    "lat" : -37.82876472364242,
    "lng" : 145.03437282725582,
    "name" : "Stop 32: Glenferrie Road",
    "type" : "tram",
}
{
    "lat" : -37.829107124387065,
    "lng" : 145.03727774343866,
    "name" : "Stop 33: Berkeley Street",
    "type" : "tram",
}
{
    "lat" : -37.82902707721175,
    "lng" : 145.03685303240485,
    "name" : "Stop 33: Berkeley Street",
    "type" : "tram",
}
{
    "lat" : -37.82957382875577,
    "lng" : 145.04149132616396,
    "name" : "Stop 35: Robinson Road",
    "type" : "tram",
}
{
    "lat" : -37.82926151904351,
    "lng" : 145.03858674525725,
    "name" : "Stop 34: Kooyongkoot Road",
    "type" : "tram",
}
{
    "lat" : -37.82921634058542,
    "lng" : 145.03845883741485,
    "name" : "Stop 34: Kooyongkoot Road",
    "type" : "tram",
}
{
    "lat" : -37.82960450652138,
    "lng" : 145.04149702585812,
    "name" : "Stop 35: Robinson Road",
    "type" : "tram",
}
{
    "lat" : -37.82861460375659,
    "lng" : 145.03426126412455,
    "name" : "Stop 70: Riversdale Road",
    "type" : "tram",
}
{
    "lat" : -37.82604521515779,
    "lng" : 145.03469938620344,
    "name" : "Stop 71: Urquhart Street",
    "type" : "tram",
}
{
    "lat" : -37.825955864069954,
    "lng" : 145.03475244365052,
    "name" : "Stop 71: Urquhart Street",
    "type" : "tram",
}
{
    "lat" : -37.83132950219451,
    "lng" : 145.0337326174914,
    "name" : "Stop 69: South Street",
    "type" : "tram",
}
{
    "lat" : -37.82401050816242,
    "lng" : 145.0351117758396,
    "name" : "Stop 72: Oxley Road",
    "type" : "tram",
}
{
    "lat" : -37.831072177767055,
    "lng" : 145.03381668798028,
    "name" : "Stop 69: South Street",
    "type" : "tram",
}
{
    "lat" : -37.824174625826544,
    "lng" : 145.0350448882523,
    "name" : "Stop 72: Manningtree Road",
    "type" : "tram",
}
{
    "lat" : -37.833201013535074,
    "lng" : 145.03343204244362,
    "name" : "Stop 68: Callantina Road",
    "type" : "tram",
}
{
    "lat" : -37.83344006541358,
    "lng" : 145.03335115707802,
    "name" : "Stop 68: Callantina Road",
    "type" : "tram",
}
{
    "lat" : -37.83540830391678,
    "lng" : 145.03304806745922,
    "name" : "Stop 67: Gardiner Road",
    "type" : "tram",
}
{
    "lat" : -37.83564743961432,
    "lng" : 145.03296802028393,
    "name" : "Stop 67: Gardiner Road",
    "type" : "tram",
}
{
    "lat" : -37.81006754750939,
    "lng" : 145.03767965569585,
    "name" : "Stop 79: Wellington Street",
    "type" : "tram",
}
{
    "lat" : -37.822495227706696,
    "lng" : 145.0353925695959,
    "name" : "Stop 73: Burwood Road",
    "type" : "tram",
}
{
    "lat" : -37.812057243684734,
    "lng" : 145.03734647504467,
    "name" : "Stop 78: Fitzwilliam Street",
    "type" : "tram",
}
{
    "lat" : -37.81456720459005,
    "lng" : 145.03687717228598,
    "name" : "Stop 77: Barkers Road",
    "type" : "tram",
}
{
    "lat" : -37.8213246111095,
    "lng" : 145.03561167254486,
    "name" : "Stop 74: Glenferrie Station",
    "type" : "tram",
}
{
    "lat" : -37.81214190090677,
    "lng" : 145.03729165739793,
    "name" : "Stop 78: Fitzwilliam Street",
    "type" : "tram",
}
{
    "lat" : -37.820560432997155,
    "lng" : 145.03571585960128,
    "name" : "Stop 74: Glenferrie Station",
    "type" : "tram",
}
{
    "lat" : -37.81889042260886,
    "lng" : 145.03602867222776,
    "name" : "Stop 75: Chrystobel Crescent",
    "type" : "tram",
}
{
    "lat" : -37.818519607212465,
    "lng" : 145.03613696641673,
    "name" : "Stop 75: Liddiard Street",
    "type" : "tram",
}
{
    "lat" : -37.8168942723681,
    "lng" : 145.03640242129023,
    "name" : "Stop 76: Johnson Street",
    "type" : "tram",
}
{
    "lat" : -37.81678648109329,
    "lng" : 145.03646159752668,
    "name" : "Stop 76: Johnson Street",
    "type" : "tram",
}
{
    "lat" : -37.81480944159176,
    "lng" : 145.03679285034008,
    "name" : "Stop 77: Barkers Road",
    "type" : "tram",
}
{
    "lat" : -37.82987658309838,
    "lng" : 145.04380062430732,
    "name" : "Stop 36: Auburn Road",
    "type" : "tram",
}
{
    "lat" : -37.82276001202794,
    "lng" : 145.03730892411846,
    "name" : "Glenferrie Railway Station",
    "train" : "",
    "tram" : "",
    "bus" : "",
}
{
    "lat" : -37.82168226691792,
    "lng" : 145.03657047844888,
    "name" : "Glenferrie",
    "type" : "train",
}
{
    "lat" : -37.821514880311526,
    "lng" : 145.03659604325355,
    "name" : "Glenferrie",
    "type" : "train",
}
{
    "lat" : -37.8214886449546,
    "lng" : 145.03660098857642,
    "name" : "Glenferrie",
    "type" : "train",
}
{
    "lat" : -37.828628433896824,
    "lng" : 145.03399924583135,
    "name" : "Stop 32: Glenferrie Road",
    "type" : "tram",
}
{
    "lat" : -37.8288277555543,
    "lng" : 145.03440669014464,
    "name" : "Stop 32: Glenferrie Road",
    "type" : "tram",
}
{
    "lat" : -37.80779982360579,
    "lng" : 145.03832137420278,
    "name" : "Stop 36: Glenferrie Road",
    "type" : "tram",
}
{
    "lat" : -37.80760712365185,
    "lng" : 145.03794217690324,
    "name" : "Stop 36: Glenferrie Road",
    "type" : "tram",
}
{
    "lat" : -37.83345213535415,
    "lng" : 145.03327848597746,
    "name" : "Stop 68: Callantina Road",
    "type" : "tram",
}
{
    "lat" : -37.83107351887156,
    "lng" : 145.0339174384564,
    "name" : "Stop 69: South Street",
    "type" : "tram",
}
{
    "lat" : -37.83132262903388,
    "lng" : 145.03364946901195,
    "name" : "Stop 69: South Street",
    "type" : "tram",
}
{
    "lat" : -37.82861552576594,
    "lng" : 145.03431985362778,
    "name" : "Stop 70: Riversdale Road",
    "type" : "tram",
}
{
    "lat" : -37.83565674352684,
    "lng" : 145.03287548407292,
    "name" : "Stop 67: Gardiner Road",
    "type" : "tram",
}
{
    "lat" : -37.833206461772136,
    "lng" : 145.03350974268602,
    "name" : "Stop 68: Callantina Road",
    "type" : "tram",
}
{
    "lat" : -37.82596198285927,
    "lng" : 145.03486199512503,
    "name" : "Stop 71: Urquhart Street",
    "type" : "tram",
}
{
    "lat" : -37.828901264845115,
    "lng" : 145.03409689500336,
    "name" : "Stop 70: Riversdale Road",
    "type" : "tram",
}
{
    "lat" : -37.835410483211604,
    "lng" : 145.03313741854708,
    "name" : "Stop 67: Gardiner Road",
    "type" : "tram",
}
{
    "lat" : -37.82273436340424,
    "lng" : 145.03523683383492,
    "name" : "Stop 73: Burwood Road",
    "type" : "tram",
}
{
    "lat" : -37.82603398340754,
    "lng" : 145.0346131364198,
    "name" : "Stop 71: Urquhart Street",
    "type" : "tram",
}
{
    "lat" : -37.82249732318249,
    "lng" : 145.03548887766334,
    "name" : "Stop 73: Burwood Road",
    "type" : "tram",
}
{
    "lat" : -37.82400916705791,
    "lng" : 145.03516944333342,
    "name" : "Stop 72: Oxley Road",
    "type" : "tram",
}
{
    "lat" : -37.82417244653172,
    "lng" : 145.03496534399113,
    "name" : "Stop 72: Manningtree Road",
    "type" : "tram",
}
{
    "lat" : -37.818887740399845,
    "lng" : 145.03596279046877,
    "name" : "Stop 75: Chrystobel Crescent",
    "type" : "tram",
}
{
    "lat" : -37.81852145123116,
    "lng" : 145.0362140799259,
    "name" : "Stop 75: Liddiard Street",
    "type" : "tram",
}
{
    "lat" : -37.81688773448363,
    "lng" : 145.03632874436136,
    "name" : "Stop 76: Johnson Street",
    "type" : "tram",
}
{
    "lat" : -37.81678706782651,
    "lng" : 145.03653334661783,
    "name" : "Stop 76: Johnson Street",
    "type" : "tram",
}
{
    "lat" : -37.814802736069225,
    "lng" : 145.03671473100252,
    "name" : "Stop 77: Barkers Road",
    "type" : "tram",
}
{
    "lat" : -37.812137877593244,
    "lng" : 145.03722116559226,
    "name" : "Stop 78: Fitzwilliam Street",
    "type" : "tram",
}
{
    "lat" : -37.81457273664614,
    "lng" : 145.0369518550433,
    "name" : "Stop 77: Barkers Road",
    "type" : "tram",
}
{
    "lat" : -37.81206093172213,
    "lng" : 145.0374309646287,
    "name" : "Stop 78: Fitzwilliam Street",
    "type" : "tram",
}
{
    "lat" : -37.8100617639962,
    "lng" : 145.03761369011784,
    "name" : "Stop 79: Wellington Street",
    "type" : "tram",
}
{
    "lat" : -37.80986185560553,
    "lng" : 145.0378602857092,
    "name" : "Stop 79: Wellington Street",
    "type" : "tram",
}
{
    "lat" : -37.80824783633042,
    "lng" : 145.03803965843713,
    "name" : "Stop 80: Cotham Road",
    "type" : "tram",
}
{
    "lat" : -37.827238462893575,
    "lng" : 145.01685037485254,
    "name" : "Stop 17: Madden Grove",
    "type" : "tram",
}
{
    "lat" : -37.82748841124621,
    "lng" : 145.01651509872562,
    "name" : "Stop 17: Madden Grove",
    "type" : "tram",
}
{
    "lat" : -37.819972777765656,
    "lng" : 145.0163843410361,
    "name" : "Stop 23: Hawthorn Bridge",
    "type" : "tram",
}
{
    "lat" : -37.82000345553129,
    "lng" : 145.0161791520464,
    "name" : "Stop 23: Hawthorn Bridge",
    "type" : "tram",
}
{
    "lat" : -37.806620322191236,
    "lng" : 145.0312495624953,
    "name" : "Cotham Road",
    "type" : "bus",
}
{
    "lat" : -37.80691930467742,
    "lng" : 145.03047448790886,
    "name" : "Kew Shopping Centre",
    "type" : "bus",
}
{
    "lat" : -37.81792465972521,
    "lng" : 145.01859372689358,
    "name" : "Stop 24: Grattan Street",
    "type" : "tram",
}
{
    "lat" : -37.82193565185085,
    "lng" : 145.02306161656122,
    "name" : "Hawthorn",
    "type" : "train",
}
{
    "lat" : -37.821776479509566,
    "lng" : 145.02302884331982,
    "name" : "Hawthorn",
    "type" : "train",
}
{
    "lat" : -37.80723605679836,
    "lng" : 145.02787165551638,
    "name" : "Kew Junction",
    "type" : "bus",
}
{
    "lat" : -37.80723303931322,
    "lng" : 145.02883264071522,
    "name" : "Kew Junction",
    "type" : "bus",
}
{
    "lat" : -37.82133416647912,
    "lng" : 145.0238214360839,
    "name" : "Hawthorn Station",
    "type" : "bus",
}
{
    "lat" : -37.82196892800644,
    "lng" : 145.02309682055454,
    "name" : "Hawthorn",
    "type" : "train",
}
{
    "lat" : -37.81582675317992,
    "lng" : 145.02093135586966,
    "name" : "Stop 25: Brook Street",
    "type" : "tram",
}
{
    "lat" : -37.81799666027348,
    "lng" : 145.01873999110398,
    "name" : "Stop 24: Hill Street",
    "type" : "tram",
}
{
    "lat" : -37.82126241738794,
    "lng" : 145.02383618823347,
    "name" : "Hawthorn Station",
    "type" : "bus",
}
{
    "lat" : -37.82087232361425,
    "lng" : 145.02107435113783,
    "name" : "Stop 25: St James Park",
    "type" : "tram",
}
{
    "lat" : -37.820943318334116,
    "lng" : 145.02112933642263,
    "name" : "Stop 25: St James Park",
    "type" : "tram",
}
{
    "lat" : -37.81593907068245,
    "lng" : 145.02059742084725,
    "name" : "Stop 25: Brook Street",
    "type" : "tram",
}
{
    "lat" : -37.81325778367628,
    "lng" : 145.02328222825275,
    "name" : "Stop 26: Barkers Road",
    "type" : "tram",
}
{
    "lat" : -37.821285970535854,
    "lng" : 145.02468913070044,
    "name" : "Stop 26: Hawthorn Station",
    "type" : "tram",
}
{
    "lat" : -37.82143852117363,
    "lng" : 145.0248084890016,
    "name" : "Stop 26: Hawthorn Station",
    "type" : "tram",
}
{
    "lat" : -37.82761824692636,
    "lng" : 145.02575371622248,
    "name" : "Stop 29: Riversdale Junction",
    "type" : "tram",
}
{
    "lat" : -37.80999705570372,
    "lng" : 145.02603627017845,
    "name" : "Stop 31: Stevenson Street",
    "type" : "tram",
}
{
    "lat" : -37.82174152697334,
    "lng" : 145.02626082136447,
    "name" : "Stop 27: Burwood Road",
    "type" : "tram",
}
{
    "lat" : -37.8248178530761,
    "lng" : 145.025908194698,
    "name" : "Stop 28: Wattle Road",
    "type" : "tram",
}
{
    "lat" : -37.81301931853099,
    "lng" : 145.02323336175726,
    "name" : "Stop 29: High Street",
    "type" : "tram",
}
{
    "lat" : -37.82491424496257,
    "lng" : 145.02568012311264,
    "name" : "Stop 28: Wattle Road",
    "type" : "tram",
}
{
    "lat" : -37.82733686643681,
    "lng" : 145.0253635386298,
    "name" : "Stop 29: Riversdale Junction",
    "type" : "tram",
}
{
    "lat" : -37.81298436599474,
    "lng" : 145.02378053239642,
    "name" : "Stop 29: Barkers Road",
    "type" : "tram",
}
{
    "lat" : -37.82146073321704,
    "lng" : 145.0261710511815,
    "name" : "Stop 27: Power Street",
    "type" : "tram",
}
{
    "lat" : -37.81023334155418,
    "lng" : 145.0260912554633,
    "name" : "Stop 31: Stevenson Street",
    "type" : "tram",
}
{
    "lat" : -37.810001330474336,
    "lng" : 145.02656332425,
    "name" : "Stop 31: Stevenson Street",
    "type" : "tram",
}
{
    "lat" : -37.80685367437559,
    "lng" : 145.03043743989684,
    "name" : "Stop 33: Kew Shopping Centre",
    "train" : "",
    "tram" : "1",
    "bus" : "1",
}
{
    "lat" : -37.806675978028295,
    "lng" : 145.03128501794572,
    "name" : "Stop 33: Cotham Road",
    "train" : "",
    "tram" : "1",
    "bus" : "1",
}
{
    "lat" : -37.807615254097925,
    "lng" : 145.028597025417,
    "name" : "Stop 32: Kew Junction",
    "type" : "tram",
}
{
    "lat" : -37.80687613787609,
    "lng" : 145.0315787198329,
    "name" : "Stop 34: QPO",
    "type" : "tram",
}
{
    "lat" : -37.80698635990282,
    "lng" : 145.0313373210215,
    "name" : "Stop 34: QPO",
    "type" : "tram",
}
{
    "lat" : -37.80565581659306,
    "lng" : 145.03392523362635,
    "name" : "Holy Trinity Church",
    "type" : "bus",
}
{
    "lat" : -37.80558825845347,
    "lng" : 145.0338896943569,
    "name" : "Holy Trinity Church",
    "type" : "bus",
}
{
    "lat" : -37.80501560682865,
    "lng" : 145.0354829265121,
    "name" : "Stop 35: Cobden Street",
    "type" : "tram",
}
{
    "lat" : -37.80356503466544,
    "lng" : 145.0399676638051,
    "name" : "Stop 36: Gladstone Street",
    "type" : "tram",
}
{
    "lat" : -37.80556386711524,
    "lng" : 145.03397141791282,
    "name" : "Stop 34: Pakington Street",
    "type" : "tram",
}
{
    "lat" : -37.80346227253253,
    "lng" : 145.03977714314595,
    "name" : "Stop 36: Parkhill Road",
    "type" : "tram",
}
{
    "lat" : -37.80563486183513,
    "lng" : 145.03419404126112,
    "name" : "Stop 34: Union Street",
    "type" : "tram",
}
{
    "lat" : -37.80247312413903,
    "lng" : 145.04256135992313,
    "name" : "Stop 37: Kew Cemetery",
    "type" : "tram",
}
{
    "lat" : -37.80496581832381,
    "lng" : 145.03605155482342,
    "name" : "Stop 35: Charles Street",
    "type" : "tram",
}
{
    "lat" : -37.802663812436236,
    "lng" : 145.04248357586164,
    "name" : "Stop 37: Kew Cemetery",
    "type" : "tram",
}
{
    "lat" : -37.83006132024434,
    "lng" : 145.0435345827006,
    "name" : "Riversdale Road",
    "type" : "bus",
}
{
    "lat" : -37.830068947776226,
    "lng" : 145.0436204972081,
    "name" : "Riversdale Road",
    "type" : "bus",
}
{
    "lat" : -37.82807363572579,
    "lng" : 145.0291022865403,
    "name" : "Stop 30: Through Street",
    "type" : "tram",
}
